X	Y	FID	Facility_N	F_NAME	HMIS	Province	District	Division	LOCATION	Sub_Locati	Spatial_Re	Facility_T	Agency	Latitude	Longitude	GlobalID
40.795232	-2.057423	1	2	BARGONI HEALTH CENTRE	3606	COAST	LAMU	HINDI	HINDI MAGOGONI	BARGONI	DDP	3	MOH	-2.057423	40.795232	{DFBCC6ED-7E0E-4247-831A-195C023F93A9}
41.106066	-2.071384	2	3	FAZA HEALTH CENTRE	626	COAST	LAMU	FAZA	TCHUNDWA	TCHUNDWA	DDP	3	MOH	-2.071384	41.106066	{46B9BA32-BDFF-4E0C-A0C0-A549D2C65C81}
40.810619	-2.17357	3	4	HINDI MAGOGONI DISP	0	COAST	LAMU	HINDI	HINDI MAGOGONI	HINDI MAGOGONI	DANIDA	4	MOH	-2.17357	40.810619	{98DC5F1F-331C-4B1B-B978-CD619C44EFAF}
40.82	-2.18	4	5	HINDI PRISON DISP	615	COAST	LAMU	HINDI	HINDI MAGOGONI	HINDI MAGOGONI	ILRI VILLAGES	4	MOH	-2.18	40.82	{407E09F7-9F8C-41B5-8D22-FF102245C38E}
40.657674	-2.341627	5	6	HONGWE CATHOLIC HEALTH CENTRE	616	COAST	LAMU	MPEKETONI	HONGWE	HONGWE	SUBLOC CENTROID	3	MISS	-2.341627	40.657674	{C9C4B62A-5FEB-4606-AC9F-A9CF7081DA78}
41.123971	-2.080138	6	7	ICHUNDWA DISP	625	COAST	LAMU	KIZINGITINI	MBWAJUMWALI	MYABOGI	DDP	4	MOH	-2.080138	41.123971	{729C4A36-3229-4164-AEEB-07AAD2D4D7DF}
41.489472	-1.741314	7	8	KIUNGA HEALTH CENTRE	627	COAST	LAMU	KIUNGA	KIUNGA	RUBU/MWAMBORE	DDP	3	MOH	-1.741314	41.489472	{455009DB-C29F-4755-9662-235E49B4E289}
41.276085	-2.002129	8	9	KIWAYU DISP	618	COAST	LAMU	KIZINGITINI	NDAU	KIWAYUU	DDP	4	MOH	-2.002129	41.276085	{BDCFD88F-B82C-4098-9F2A-4E1EC4CC3118}
41.1464	-2.07302	9	10	KIZINGITINI DISP	617	COAST	LAMU	KIZINGITINI	MBWAJUMWALI	MYABOGI	DANIDA	4	MOH	-2.07302	41.1464	{7C5FEF7E-63FD-456D-8FBE-C95858788A0F}
40.716142	-2.368667	10	11	LAKE KENYATTA HEALTH CENTRE	2451	COAST	LAMU	MPEKETONI	MPEKETONI	KIONGWE	HD MAPS	3	MISS	-2.368667	40.716142	{FC731B3F-5961-4657-A43D-264285278E5F}
40.906769	-2.27857	11	12	LAMU DISTRICT HOSPITAL	631	COAST	LAMU	AMU	SHELLA MANDA	SHELLA(LAMU)	DANIDA	1	MOH	-2.27857	40.906769	{67269D20-EFA6-47AA-8972-EF719311B809}
41.181	-1.746	12	13	MANGAI DISP	2508	COAST	LAMU	KIUNGA	BASUBA	MANGAI	ILRI MKT CENTRES	4	MOH	-1.746	41.181	{515D3645-4E46-40C9-8404-1844D94653B8}
40.858402	-2.29451	13	14	MATONDONI DISP	619	COAST	LAMU	AMU	MATONDONI	KIPUNGANI	DISTRICT ESTIMATES	4	MOH	-2.29451	40.858402	{8F1F8108-0CE9-4C6D-9A66-37A5703402C1}
41.299752	-1.896091	14	15	MKOKONI DISP	3786	COAST	LAMU	KIUNGA	KIUNGA	MKOKONI	SUBLOC CENTROID	4	MOH	-1.896091	41.299752	{2BE2E3C3-4B4C-4C08-9E8B-22C20261895A}
40.6761	-2.29477	15	16	MKUNUBI DISP	620	COAST	LAMU	MPEKETONI	MKUNUMBI	MKUNUMBI	1:50000 MAPS	4	MOH	-2.29477	40.6761	{1B24789A-FDCF-4F7C-B19D-4D1F38D78B03}
40.7218	-2.42249	16	17	MLANGUMU DISP	0	COAST	LAMU	MPEKETONI	BAHARINI	BAHARI	1:50000 MAPS	4	MOH	-2.42249	40.7218	{06424D31-DF93-4441-9380-98CF74CEA3F8}
40.315276	-2.274546	17	18	MOA (WEMA) MISSION DISP	2450	COAST	LAMU	WITU	DIDE WARIDE	MOA	ILRI MKT CENTRES	4	MISS	-2.274546	40.315276	{5AE97713-60FA-4382-8D14-D5D94F5224FE}
40.830624	-2.226905	18	19	MOKOWE HEALTH CENTRE	628	COAST	LAMU	HINDI	MOKOWE	KILIMANI	DDP	3	MOH	-2.226905	40.830624	{B978B0A0-6409-4EEA-A815-B571BBC642E5}
40.6976	-2.38934	19	20	MPEKETONI HEALTH CENTRE	629	COAST	LAMU	MPEKETONI	MPEKETONI	CENTRAL(LAMU)	1:50000 MAPS	3	MOH	-2.38934	40.6976	{83C5BE0A-541D-4F73-BD0D-53C9901DE2FF}
40.860674	-2.234325	20	21	MUKOWE HOSPITAL	0	COAST	LAMU	HINDI	MOKOWE	MOKOWE	HD MAPS	1	MOH	-2.234325	40.860674	{3360C7CC-746A-4020-8AD5-97FA0D1761EA}
40.780399	-2.01823	21	22	N.Y.S DISP (BARGONI)	614	COAST	LAMU	HINDI	HINDI MAGOGONI	BARGONI	DANIDA	4	MOH	-2.01823	40.780399	{7AFAD8EE-D1B5-4271-B2D7-E42FFF7D309B}
41.209608	-2.011428	22	23	NDAU DISP	621	COAST	LAMU	KIZINGITINI	NDAU	NDAU	DANIDA	4	MOH	-2.011428	41.209608	{14F24923-9283-444A-A193-95CE83BDF612}
40.481233	-2.203467	23	24	PANDA NGUO DISP	3787	COAST	LAMU	WITU	WITU	PANDANGUO	SUBLOC CENTROID	4	MOH	-2.203467	40.481233	{05BEF628-0949-4A50-AFD3-A9B6B762918B}
41.011852	-2.119562	24	25	PATTE DISP	622	COAST	LAMU	FAZA	PATTE	PATTE	DISTRICT ESTIMATES	4	MOH	-2.119562	41.011852	{8DE9E695-9818-4B94-9BF4-9F66BCDB3CBB}
40.949199	-2.277881	25	27	SHELLA DISP	623	COAST	LAMU	AMU	SHELLA MANDA	MANDA(LAMU)	DISTRICT ESTIMATES	4	MOH	-2.277881	40.949199	{FFAE1B7E-26B5-40D9-8655-59C8C114B3BF}
41.08097	-2.109339	26	28	SIYU DISP	624	COAST	LAMU	FAZA	SIYU	SIYU	DISTRICT ESTIMATES	4	MOH	-2.109339	41.08097	{F4E7AD2B-EF40-4AD4-A81C-6C2F64931847}
40.435958	-2.39067	27	29	WITU HEALTH CENTRE	630	COAST	LAMU	WITU	WITU	WITU	DDP	3	MOH	-2.39067	40.435958	{AC09A430-2997-4A06-AEF5-C3DDB2D4A2C3}
39.477797	-3.065975	28	36	ADC GALANA RANCH DISP	3301	COAST	MALINDI	MALINDI	CHAKAMA	KISIKI CHA WANGIRIAM	DSA/DFH(MOH)-UNFPA REPORT	4	MISS	-3.065975	39.477797	{0DA39336-48DB-4315-A760-A1F4FA0DCE97}
39.979912	-2.8398	29	1	ADU DISP	512	COAST	MALINDI	MARAFA	ADU	ADU	DANIDA	4	MOH	-2.8398	39.979912	{450C3800-B195-41D4-96B1-2C75F6497034}
39.791723	-3.247002	30	2	AIC MALANGA DISP	4657	COAST	MALINDI	MALINDI	LANGOBAYA	MALANGA(MALINDI)	AMKENI	4	MISS	-3.247002	39.791723	{9AA5A823-BAE1-4DDD-870D-7055E4E6930C}
39.784611	-3.10371	31	3	BARICHO DISP	516	COAST	MALINDI	MARAFA	BUNGALE	BARICHO(MALINDI)	DANIDA	4	MOH	-3.10371	39.784611	{87F43D66-AC94-4601-B26C-C4A5ED94B508}
39.633499	-3.122	32	4	CHAKAMA DISP	518	COAST	MALINDI	MALINDI	CHAKAMA	MAKONGENI(MALINDI)	DANIDA	4	MOH	-3.122	39.633499	{7A370EAC-A916-4D55-BF84-2DA724D103CE}
39.936409	-3.18239	33	5	DAGAMRA DISP	521	COAST	MALINDI	MARAFA	DAGAMRA	BATE	DANIDA	4	MOH	-3.18239	39.936409	{2D11BB76-B2A7-4951-918F-8A4C85534C7E}
40.093725	-2.917646	34	0	FUNDISA DISP	2937	COAST	MALINDI	MAGARINI	FUNDISA	FUNDISA	DHMT	4	MOH	-2.917646	40.093725	{EC4647DF-ED44-421E-A2F2-D070C26EE6EE}
40.116335	-3.197483	35	6	GALANA HOSPITAL	564	COAST	MALINDI	MALINDI	MALINDI	SABAKI	AMKENI	1	MISS	-3.197483	40.116335	{7CF5A758-8C00-4304-9F2D-1AA70E54E6F4}
39.891178	-3.13094	36	7	GARASHI DISP	526	COAST	MALINDI	MARAFA	GARASHI	MIKUYUNI(MALINDI)	DANIDA	4	MOH	-3.13094	39.891178	{914D817C-097D-4F8A-913D-4C7D1F9AFE44}
40.050652	-3.284649	37	8	GEDE DISP	527	COAST	MALINDI	MALINDI	WATAMU	CHEMBE KIBABA MUCHE	DANIDA	4	MOH	-3.284649	40.050652	{1CB89A4D-C66B-4315-A9D5-3C6E0B179A86}
40.133381	-3.03614	38	9	GONGONI DISP	530	COAST	MALINDI	MAGARINI	GONGONI	GONGONI	DANIDA	4	MOH	-3.03614	40.133381	{FFBC3AF4-0BB6-4C92-BD1A-874F701F4B63}
39.905842	-3.18922	39	10	JILORE HEALTH CENTRE	533	COAST	MALINDI	MALINDI	JILORE	JILORE/ZIAN	DANIDA	3	MOH	-3.18922	39.905842	{7C470610-AD3B-481F-94DE-0F14FBDDF76E}
39.86591	-3.16443	40	11	KAKONENI DISP	535	COAST	MALINDI	MALINDI	JILORE	KAKONENI	DANIDA	4	MOH	-3.16443	39.86591	{F1D352AD-86FD-48C4-8F0D-4550A4CFDF28}
40.001911	-3.22065	41	12	KAKUYUNI DISP	536	COAST	MALINDI	MALINDI	GOSHI	KAKUYUNI(MALINDI)	DANIDA	4	MOH	-3.22065	40.001911	{AFFDD16C-3936-4663-B515-E69D5E73AC37}
39.792298	-3.257113	42	14	MALANGA SDA DISPENSARY	0	COAST	MALINDI	MALINDI	LANGOBAYA	MALANGA(MALINDI)	AMKENI	4	MISS	-3.257113	39.792298	{85C68FEE-C10A-45E8-9645-321D155429A6}
40.1182	-3.2165	43	15	MALINDI DISTRICT HOSPITAL	566	COAST	MALINDI	MALINDI	MALINDI	BARANI	KEMRI-KILIFI PROJECT	1	MOH	-3.2165	40.1182	{E8D9C1DF-8423-4E15-B7EC-31EE30EB8A28}
40.136879	-3.11815	44	16	MAMBRUI DISP	542	COAST	MALINDI	MAGARINI	MAGARINI	MAMBRUI	DANIDA	4	MOH	-3.11815	40.136879	{8E887FE0-A1FC-4930-8B9B-BF0426AD96AD}
39.959728	-3.02833	45	17	MARAFA HEALTH CENTRE (MAGARINI)	561	COAST	MALINDI	MARAFA	MARAFA	MADINA	DANIDA	3	MOH	-3.02833	39.959728	{7F36B696-9BC6-4631-9E1A-FAA117378E12}
40.144611	-2.863	46	18	MARERENI DISP	3765	COAST	MALINDI	MAGARINI	FUNDISA	MARERENI	DANIDA	4	MOH	-2.863	40.144611	{5FAA757D-CEE3-4C52-B7AC-0DAD8D20AF56}
40.112049	-3.09027	47	19	MARIKEBUNI DISP	543	COAST	MALINDI	MAGARINI	MAGARINI	MARIKEBUNI	DANIDA	4	MOH	-3.09027	40.112049	{9DD96781-6B6F-4034-8A27-F1DD253EFF12}
40.031232	-3.195264	48	20	MERE SDA DISP	0	COAST	MALINDI	MALINDI	GOSHI	MALIMO	AMKENI	4	MISS	-3.195264	40.031232	{A23BC3BB-7127-4460-ADC4-283719675FD2}
40.037835	-2.702209	49	21	MIDZIJINI DISP	3766	COAST	MALINDI	MARAFA	ADU	RAMADA	SUBLOC CENTROID	4	MISS	-2.702209	40.037835	{55247AFC-34E9-41FA-8201-E3FBEC206CF5}
40.114903	-3.232732	50	22	MUNICIPAL HEALTH CENTRE	4350	COAST	MALINDI	MALINDI	MALINDI	SHELLA(MALINDI)	AMKENI	3	LA	-3.232732	40.114903	{EBC5CB2A-40E5-45AF-A219-1252AD64FD83}
40.140365	-2.963256	51	0	NEEMA MEDICAL DISP	0	COAST	MALINDI	MAGARINI	FUNDISA	FUNDISA	DHMT	4	MISS	-2.963256	40.140365	{F82DA1FC-CB26-4E48-BE00-EF684178A2C4}
40.18	-3.01	52	23	NGOMENI DISP	549	COAST	MALINDI	MAGARINI	GONGONI	NGOMENI	DANIDA	4	MOH	-3.01	40.18	{6CFAB590-BA99-4382-A47F-574B42FF36D9}
39.822899	-3.02801	53	25	SOSONI DISP	553	COAST	MALINDI	MARAFA	BUNGALE	DAKACHA	DANIDA	4	MOH	-3.02801	39.822899	{B155880C-2004-490F-A4D2-7D602E10E3DD}
40.112698	-3.220937	54	26	TAWFIQ MUSLIM HOSPITAL	2940	COAST	MALINDI	MALINDI	MALINDI	SHELLA(MALINDI)	AMKENI	1	MISS	-3.220937	40.112698	{7BAC8645-8196-49E5-8503-2AD375801186}
40.114882	-3.216853	55	27	TAWHEED MUSLIM DISP	0	COAST	MALINDI	MALINDI	MALINDI	BARANI	AMKENI	4	MISS	-3.216853	40.114882	{4B83E683-6A77-4494-B388-FACC01A2F4CF}
40.01693	-3.35175	56	28	WATAMU SDA DISP	2917	COAST	MALINDI	MALINDI	WATAMU	WATAMU	PSI	4	MISS	-3.35175	40.01693	{A95E9FB9-3060-4A89-9905-354A86C55400}
39.663987	-4.041251	57	1	ALMS HOUSE DISP	643	COAST	MOMBASA	ISLAND	TONONOKA	TONONOKA	DSA/DFH(MOH)-UNFPA REPORT	4	LA	-4.041251	39.663987	{CF968F62-467B-4C65-B054-92081E50B867}
39.714984	-4.005339	58	3	ANNEXE DISP	4517	COAST	MOMBASA	KISAUNI	KISAUNI	KISAUNI	DSA/DFH(MOH)-UNFPA REPORT	4	MOH	-4.005339	39.714984	{766D4FF2-33DA-4825-B94B-E79BB127AA9E}
39.707035	-3.973318	59	5	BAMBURI DISP	644	COAST	MOMBASA	KISAUNI	BAMBURI	BAMBURI	SUBLOC CENTROID	4	LA	-3.973318	39.707035	{1538C815-F889-4E62-A279-EE81FC80D81E}
39.61943	-4.016913	60	6	CHAANI DISP	645	COAST	MOMBASA	CHANGAMWE	CHANGAMWE	CHANGAMWE	SUBLOC CENTROID	4	LA	-4.016913	39.61943	{37536DC3-A316-4F66-9D0A-55CA3E542323}
39.677362	-4.059355	61	7	COAST PROVINCIAL GENERAL HOSP.	696	COAST	MOMBASA	ISLAND	OLD TOWN	OLD T.(MAKADARA WARD	HD MAPS	2	MOH	-4.059355	39.677362	{A77C7109-7A57-495F-A373-C3F1ECD1298A}
39.644637	-4.100958	62	8	CRESCENT MEDICAL AID DISP	3303	COAST	MOMBASA	LIKONI	LIKONI	TIMBWANI	AMKENI	4	MISS	-4.100958	39.644637	{7DC40BE0-F6F3-4604-8A19-1C4E77E2A19F}
39.665141	-4.056412	63	11	ELIZA MEDICAL RENT DISP	4530	COAST	MOMBASA	ISLAND	MAJENGO	MWEMBE TAYARI	ILRI MKT CENTRES	4	MISS	-4.056412	39.665141	{ABD81D1F-A386-41C7-B78B-F706BB3349B1}
39.658767	-4.065307	64	12	GANJONI (CDC) DISP	648	COAST	MOMBASA	ISLAND	GANJONI	GANJONI	SUBLOC CENTROID	4	LA	-4.065307	39.658767	{2F359614-888D-4428-951D-AFB920B088CC}
39.680918	-4.064671	65	13	HOLY GHOST CATHEDRAL DISP	3307	COAST	MOMBASA	ISLAND	GANJONI	KIZINGO(MOMBASA)	DSA/DFH(MOH)-UNFPA REPORT	4	MISS	-4.064671	39.680918	{231E5BA5-CF79-452F-9FEA-0A5A49A1836A}
39.598962	-3.987726	66	17	JOMVU KUU HEALTH CENTRE	685	COAST	MOMBASA	CHANGAMWE	MIRITINI	JOMVU KUU	DSA/DFH(MOH)-UNFPA REPORT	3	LA	-3.987726	39.598962	{9F9F5333-AC04-4CFC-BED4-F284FD8F28EE}
39.596276	-3.990976	67	18	JOMVU REFUGEE CAMP	0	COAST	MOMBASA	CHANGAMWE	MIRITINI	JOMVU KUU	DSA/DFH(MOH)-UNFPA REPORT	4	NGO	-3.990976	39.596276	{69B24A97-C116-4A7C-9598-95B6E83A89FA}
39.65	-4.08	68	19	KILINDINI PORT DISP	651	COAST	MOMBASA	LIKONI	LIKONI	BOFU(MOMBASA)	ILRI VILLAGES	4	MOH	-4.08	39.65	{E50F5E9D-EA07-4C1A-9DFC-96D230E14BD2}
39.692579	-4.030596	69	20	KISAUNI DISP	653	COAST	MOMBASA	KISAUNI	KONGOWEA	MAWENI	ILRI MKT CENTRES	4	MOH	-4.030596	39.692579	{1F5BC991-9FAC-4E5E-95FF-76DAE1C1489A}
39.684077	-4.041348	70	21	KONGOWEA HEALTH CENTRE	683	COAST	MOMBASA	KISAUNI	KONGOWEA	KONGOWEA	AMKENI	3	MOH	-4.041348	39.684077	{97D0D67F-A9E8-4206-891A-8B2D4BFA61A7}
39.68	-4.039701	71	22	KONGOWEA MED DISP	4523	COAST	MOMBASA	KISAUNI	KONGOWEA	KONGOWEA	ILRI MKT CENTRES	4	MISS	-4.039701	39.68	{ED2A3CF2-1D7A-4E60-9B04-9BAA8422A212}
39.6	-4.04	72	23	KWA JOMVU HEALTH CENTRE	684	COAST	MOMBASA	CHANGAMWE	PORT REITZ	PORT REITZ	ILRI VILLAGES	3	LA	-4.04	39.6	{54D1D2C1-8B78-4AEF-9CCA-D36FFD1CB1A1}
39.655484	-4.085214	73	24	LIKONI HEALTH CENTRE	687	COAST	MOMBASA	LIKONI	LIKONI	TIMBWANI	AMKENI	3	MOH	-4.085214	39.655484	{EDEE98AE-5CC1-4444-98DB-F5F22AD8F9AA}
39.644641	-4.111836	74	25	LIKONI MISSION DISP	655	COAST	MOMBASA	LIKONI	SHIKA ADABU	VIJIWENI	DSA/DFH(MOH)-UNFPA REPORT	4	MISS	-4.111836	39.644641	{5BD4798A-86C4-4183-91B9-E31E7C089BBF}
39.63	-4.0352	75	27	MAGONGO HEALTH CENTRE	688	COAST	MOMBASA	CHANGAMWE	KIPEVU	KIPEVU	ILRI VILLAGES	3	LA	-4.0352	39.63	{43CE65C2-C812-4D36-A108-F7D4BC689B95}
39.66667	-4.031532	76	28	MAJENGO DISP	689	COAST	MOMBASA	ISLAND	TUDOR	TUDOR FOUR	1:50000 MAPS	4	LA	-4.031532	39.66667	{C4429B08-296D-4262-8B10-6E5EA6BAB58F}
39.663509	-4.058393	77	29	MAJENGO MCH/FP CLINIC	0	COAST	MOMBASA	ISLAND	MAJENGO	MAJENGO(MOMBASA)	DSA/DFH(MOH)-UNFPA REPORT	4	NGO	-4.058393	39.663509	{6C99EC84-C1EA-4BAA-B8C9-6402A62B134E}
39.655225	-4.03153	78	30	MAKUPA HEALTH CENTRE	690	COAST	MOMBASA	ISLAND	TUDOR	TUDOR	1:50000 MAPS	3	LA	-4.03153	39.655225	{FA689A33-0A2E-415A-9956-D85DA1C8C348}
39.660636	-4.045181	79	31	MAKUPA MCH/FP CLINIC	0	COAST	MOMBASA	ISLAND	MAJENGO	MAJENGO(MOMBASA)	DSA/DFH(MOH)-UNFPA REPORT	4	NGO	-4.045181	39.660636	{8992910B-733F-4855-BC96-28709B57E3AA}
39.648458	-4.029325	80	35	MIKINDANI MISSION DISP	660	COAST	MOMBASA	CHANGAMWE	MIKINDANI	BIRIKANI	DSA/DFH(MOH)-UNFPA REPORT	4	MISS	-4.029325	39.648458	{1789C75C-97E8-4963-A270-A709A7DCA9B2}
39.58529	-4.010761	81	36	MIRITINI DISP	4508	COAST	MOMBASA	CHANGAMWE	MIRITINI	MIRITINI	SUBLOC CENTROID	4	LA	-4.010761	39.58529	{0C9FD39C-6CB2-4B75-B50C-F809730B3148}
39.674068	-4.063657	82	37	MKOMANI HARAMBEE DISP	661	COAST	MOMBASA	ISLAND	GANJONI	KIZINGO(MOMBASA)	DSA/DFH(MOH)-UNFPA REPORT	4	NGO	-4.063657	39.674068	{F3D793E5-D3A3-401A-A2B8-AAA9EC47CD4B}
39.651523	-4.045337	83	39	MOW SHIMANZI DISP	656	COAST	MOMBASA	ISLAND	RAILWAY	SHIMANZI	SUBLOC CENTROID	4	LA	-4.045337	39.651523	{017EE840-DED3-4714-8013-DE78F10EE946}
39.641934	-4.068683	84	40	MTONGWE DISP	3959	COAST	MOMBASA	LIKONI	MTONGWE	MTONGWE	DSA/DFH(MOH)-UNFPA REPORT	4	MISS	-4.068683	39.641934	{1DA47115-EA20-4B47-9E25-82AA1CD82E93}
39.639063	-4.081243	85	41	MTONGWE HEALTH CENTRE	692	COAST	MOMBASA	LIKONI	MTONGWE	MTONGWE	AMKENI	3	MOH	-4.081243	39.639063	{B1EE0092-FEFB-4452-80DB-4DD4F6694E70}
39.67	-4.05	86	44	MVITA DISP (MOMBASA)	638	COAST	MOMBASA	ISLAND	TONONOKA	BONDENI(MOMBASA)	ILRI VILLAGES	4	LA	-4.05	39.67	{675556D0-3A59-4229-937A-5B132A468FEE}
39.685962	-3.960939	87	45	MWAKIRUGE DISP	663	COAST	MOMBASA	KISAUNI	BAMBURI	MWAKIRUNGE	DSA/DFH(MOH)-UNFPA REPORT	4	LA	-3.960939	39.685962	{87DE3701-1DCB-47A0-9FA2-36F67193CBFB}
39.672694	-4.064651	88	46	MWEMBE TAYARI SUB HEALTH CENTRE	664	COAST	MOMBASA	ISLAND	GANJONI	KIZINGO(MOMBASA)	DDP	3	LA	-4.064651	39.672694	{00A5AD5C-C7EC-4B73-944F-07EEFEE6ACF6}
39.67	-4.06	89	47	NGOMEN DISP	2370	COAST	MOMBASA	ISLAND	MAJENGO	MWEMBE TAYARI	ILRI VILLAGES	4	MOH	-4.06	39.67	{26DCA1B9-DE61-4964-A7E4-FE8A09CE9B40}
39.674455	-4.05783	90	48	OLD TOWN KADER BHOY DISP	667	COAST	MOMBASA	ISLAND	OLD TOWN	OLD T.(MAKADARA WARD	SUBLOC CENTROID	4	LA	-4.05783	39.674455	{0AC48929-525F-4157-936F-B8F09A20E1E9}
39.602867	-4.039267	91	49	PORT REITZ DISTRICT HOSPITAL	700	COAST	MOMBASA	CHANGAMWE	PORT REITZ	PORT REITZ	AMKENI	1	MOH	-4.039267	39.602867	{AD0C070F-3F2B-4412-8641-286728D9CB1F}
39.743165	-3.976707	92	52	SHANZU HADIEK COLLEGE DISP	672	COAST	MOMBASA	KISAUNI	BAMBURI	SHANZU	SUBLOC CENTROID	4	LA	-3.976707	39.743165	{4C280301-4A76-4B63-B013-CAD620EAD655}
39.637669	-4.11276	93	53	SHIKA ADABU DISP	674	COAST	MOMBASA	LIKONI	SHIKA ADABU	VIJIWENI	AMKENI	4	MOH	-4.11276	39.637669	{BC53868A-3EFF-4CD5-B786-CA13EA4F6FF3}
39.742418	-3.956292	94	54	SHIMO LA TEWA DISP	675	COAST	MOMBASA	KISAUNI	BAMBURI	SHANZU	DDP	4	MOH	-3.956292	39.742418	{9CF98567-FB6F-49BF-BF2A-4A0536C800CB}
39.667547	-4.071958	95	55	STATE HOUSE DISP	676	COAST	MOMBASA	ISLAND	GANJONI	KIZINGO(MOMBASA)	DSA/DFH(MOH)-UNFPA REPORT	4	MOH	-4.071958	39.667547	{82162EE7-E5A9-4307-A518-30993D70CC67}
39.65792	-4.117456	96	56	STELLA MARIE DISP	677	COAST	MOMBASA	LIKONI	SHIKA ADABU	VIJIWENI	DSA/DFH(MOH)-UNFPA REPORT	4	MISS	-4.117456	39.65792	{2ECC51AC-CB2A-4FEE-822B-9510FA809031}
39.657845	-4.094899	97	57	TIMBWANI CONSOLATA SISTERS DISPENSARY	3956	COAST	MOMBASA	LIKONI	LIKONI	TIMBWANI	SUBLOC CENTROID	4	MISS	-4.094899	39.657845	{DB10556E-8EB7-4383-83D3-E11C227D12D6}
39.661421	-4.029273	98	58	TUDOR HEALTH CENTRE	678	COAST	MOMBASA	ISLAND	TUDOR	TUDOR	DDP	3	MOH	-4.029273	39.661421	{AF08335E-1CAA-448F-BE67-09A3B0E45042}
39.68143	-4.068035	99	59	UKUMBUSHO CPK HOSP	702	COAST	MOMBASA	ISLAND	GANJONI	KIZINGO(MOMBASA)	DSA/DFH(MOH)-UNFPA REPORT	1	MISS	-4.068035	39.68143	{B610E962-7F9B-4A54-9898-350765C9EC7D}
39.72	-3.97	100	60	UTANGE DISP	679	COAST	MOMBASA	KISAUNI	BAMBURI	MWEMBE LEGEZA	ILRI VILLAGES	4	LA	-3.97	39.72	{33B0B171-5F6F-4CA1-A6D3-998DCE291945}
36.84009	-1.137387	101	1	ANMER DISP	190	CENTRAL	KIAMBU	KIAMBAA	KAMITI	ANMER	1:50000 MAPS	4	MOH	-1.137387	36.84009	{CA8FB86C-0E17-4B41-9019-5C22F41199B4}
36.6347	-0.978523	102	2	BATHI DISP	192	CENTRAL	KIAMBU	LARI	KIJABE	BATHI	DDP	4	MISS	-0.978523	36.6347	{0F043367-AB11-4F55-897F-07609EB61A9F}
36.6171	-1.08108	103	3	BIBIRIONI DISP	3731	CENTRAL	KIAMBU	LIMURU	LIMURU	BIBIRIONI	1:50000 MAPS	4	MISS	-1.08108	36.6171	{67985EC6-C765-4B55-B15D-AE850C18D4A3}
36.6896	-1.21635	104	4	CHURA DISP	0	CENTRAL	KIAMBU	KIKUYU	KABETE	CHURA	1:50000 MAPS	4	MOH	-1.21635	36.6896	{2CE63C72-F7C9-479A-80D7-C5D686EFF30B}
36.7613	-1.1328	105	5	CIANDA DISP	193	CENTRAL	KIAMBU	KIAMBAA	CIANDA	CIANDA	1:50000 MAPS	4	MOH	-1.1328	36.7613	{403100AC-DD1D-433D-9F14-0C2FBF73E3A4}
36.7044	-0.991187	106	6	GACHOIRE DISP	0	CENTRAL	KIAMBU	LARI	NYANDUMA	GACHOIRE	DDP	4	MOH	-0.991187	36.7044	{DC3D958C-7151-4FD1-87D8-32BBDF35E5C2}
36.791234	-1.182312	107	7	GATHANGA DISP	931	CENTRAL	KIAMBU	KIAMBAA	WAGUTHU	GATHANGA	1:50000 MAPS	4	MOH	-1.182312	36.791234	{FAFF94F9-3EBE-42C4-A99D-AA46ADC30169}
36.7054	-1.06802	108	8	GATHANGARI DISP	0	CENTRAL	KIAMBU	GITHUNGURI	GITHIGA	GITIHA	1:50000 MAPS	4	MOH	-1.06802	36.7054	{D8D70B02-B4D6-4C98-A836-F28647EB4A41}
36.8279	-1.09883	109	9	GIATHIEKO DISP	0	CENTRAL	KIAMBU	GITHUNGURI	IKINU	RIUKI	DDP	4	MOH	-1.09883	36.8279	{3DC7BF1F-C0F1-462D-9173-17D3F2748B7E}
36.65	-1.27	110	10	GICHARANI DISP	3638	CENTRAL	KIAMBU	KIKUYU	KARAI	GIKAMBURA	ILRI VILLAGES	4	MISS	-1.27	36.65	{2B0D89C5-FC24-4016-9E60-E1B8D0465D14}
36.6689	-1.16126	111	11	GICHURU DISP	198	CENTRAL	KIAMBU	LIMURU	NGECHA	NGECHA	1:50000 MAPS	4	MOH	-1.16126	36.6689	{40DCD8AB-DA22-4E67-B4C3-A15EA29CFBC8}
36.7462	-1.083	112	12	GITHIGA HEALTH CENTRE	2401	CENTRAL	KIAMBU	GITHUNGURI	GITHIGA	MATUGUTA	DDP	3	MOH	-1.083	36.7462	{BA9BA8A2-C085-4E21-AD14-00DDAAE87E94}
36.788	-1.05339	113	13	GITHUNGURI HEALTH CENTRE	233	CENTRAL	KIAMBU	GITHUNGURI	GITHUNGURI	KANJAI	DDP	3	MOH	-1.05339	36.788	{5861566C-E683-4A55-B994-F462F2322DD6}
36.6896	-1.0742	114	14	GITIHA HEALTH CENTRE	2398	CENTRAL	KIAMBU	GITHUNGURI	GITHIGA	GITIHA	1:50000 MAPS	3	MOH	-1.0742	36.6896	{EA0EB5C0-0D0B-4838-8E25-D314D46DC07D}
36.56731	-1.196205	115	15	HOLY CROSS (THIGIO) DISP	612	CENTRAL	KIAMBU	LIMURU	NDEIYA	THIGIO(KIAMBU)	SUBLOC CENTROID	4	MISS	-1.196205	36.56731	{FB9C14A5-B67E-4DEC-82FD-DAB1B29D0D98}
36.801234	-1.14234	116	16	KAARIA DISP	0	CENTRAL	KIAMBU	KIAMBAA	NDUMBERI	NDUMBERI	1:50000 MAPS	4	MOH	-1.14234	36.801234	{DD5E65EB-D00D-4950-B518-AEF55D0204C4}
36.7467	-1.05093	117	17	KAGAA HEALTH CENTRE	2400	CENTRAL	KIAMBU	GITHUNGURI	GITHUNGURI	GITHUNGURI(KIAMBU)	DDP	3	MOH	-1.05093	36.7467	{8DFCA152-438E-4D17-8CA0-42F0691A304A}
36.743433	-1.001209	118	18	KAGWE CATHOLIC MISSION DISP	207	CENTRAL	KIAMBU	LARI	GATAMAIYU	KAGWE	ILRI MKT CENTRES	4	MISS	-1.001209	36.743433	{BBE0F359-0FB4-44BA-B3CD-0E8A46370848}
36.7392	-1.00448	119	19	KAGWE HEALTH CENTRE	2447	CENTRAL	KIAMBU	LARI	GATAMAIYU	KAGWE	DDP	3	MOH	-1.00448	36.7392	{C04423D1-DFD5-49DB-96C6-9C7345702227}
36.624	-0.870245	120	20	KAMAE FOREST DISP	208	CENTRAL	KIAMBU	LARI	KINALE	KINALE	DDP	4	MOH	-0.870245	36.624	{7E83C874-4694-4EA3-A852-F743572F94CD}
36.87	-1.1	121	21	KAMBUI DISP	209	CENTRAL	KIAMBU	GITHUNGURI	NGEWA	NYAGA	ILRI VILLAGES	4	MISS	-1.1	36.87	{FECA2437-270E-4BE6-8A56-796555CDE20F}
36.7082	-1.01588	122	22	KAMBURU DISP	4831	CENTRAL	KIAMBU	LARI	KAMBURU	MATIMBEI	DDP	4	MOH	-1.01588	36.7082	{56AE0260-BC88-4668-AB8B-286504CEAD15}
36.5765	-1.28069	123	23	KARAI HEALTH CENTRE	0	CENTRAL	KIAMBU	KIKUYU	KARAI	NACHU	DDP	3	MOH	-1.28069	36.5765	{F5CF6B67-717B-4AEC-8248-4185C844946B}
36.82123	-1.174213	124	24	KARIA DISP	210	CENTRAL	KIAMBU	KIAMBAA	WAGUTHU	NGEGU	1:50000 MAPS	4	MOH	-1.174213	36.82123	{A4985F1D-952C-440C-9804-DA6DBF24DA42}
36.78	-1.22	125	25	KARURA SDA DISP	0	CENTRAL	KIAMBU	KIAMBAA	KIHARA	GACHIE	ILRI VILLAGES	4	MISS	-1.22	36.78	{4AA55E43-5F01-4485-A3EF-596AD6E333B5}
36.7399	-1.18431	126	26	KARURI HEALTH CENTRE	261	CENTRAL	KIAMBU	KIAMBAA	KIAMBAA	NJIKU	DDP	3	MOH	-1.18431	36.7399	{75BB8B25-34E9-4C14-AE0C-4430DC6E7D73}
36.658545	-1.122966	127	27	KENTMERE DISP	2413	CENTRAL	KIAMBU	LIMURU	KARAMBAINI	MABROUKE	1:50000 MAPS	4	MISS	-1.122966	36.658545	{B717F9DE-DBCE-45B8-A21B-0696FA453318}
36.8456	-1.13999	128	28	KIAMBAA DISP	0	CENTRAL	KIAMBU	KIAMBAA	KAMITI	ANMER	DDP	4	MOH	-1.13999	36.8456	{FCD2DF0E-7717-4380-A72C-ED656491ACB6}
36.82993	-1.16938	129	29	KIAMBU DISTRICT HOSPITAL	251	CENTRAL	KIAMBU	KIAMBAA	KIAMBAA S/AREA	TOWNSHIP(KIAMBAA)	GPS	1	MOH	-1.16938	36.82993	{37F2A094-2A18-4045-A0C0-14CBF75C791E}
36.702703	-1.10046	130	30	KIAWAROGA DISP	326	CENTRAL	KIAMBU	LIMURU	KARAMBAINI	KIAWAROGA	1:50000 MAPS	4	MOH	-1.10046	36.702703	{689DEFF9-612C-420F-A467-C7A3F60E100C}
36.783449	-1.157365	131	31	KIBUBUTI HEALTH CENTRE	2412	CENTRAL	KIAMBU	KIAMBAA	WAGUTHU	KANUNGA	SUBLOC CENTROID	3	MISS	-1.157365	36.783449	{F7288DA8-74C9-4B62-90E8-F7649769FA99}
36.648379	-0.921169	132	32	KIENI FOREST DISP	215	CENTRAL	KIAMBU	LARI	KINALE	MUKEU(KIAMBU)	SUBLOC CENTROID	4	MOH	-0.921169	36.648379	{27F7F1E2-D8EC-4730-A873-FBA0614D6FFA}
36.619369	-0.858108	133	33	KIENI HEALTH CENTRE	2448	CENTRAL	KIAMBU	LARI	KAMAE	KAMUKOMBI-INI	1:50000 MAPS	3	MOH	-0.858108	36.619369	{72B2E17F-80E3-446F-BBDC-7CB8C7B56D1B}
36.82658	-1.031082	134	34	KIGUMO HEALTH CENTRE	237	CENTRAL	KIAMBU	GITHUNGURI	KOMOTHAI	KARATINA	1:50000 MAPS	3	MOH	-1.031082	36.82658	{14CA0141-E4AB-41FD-955D-C82E85EA826E}
36.7386	-1.21091	135	35	KIHARA HEALTH CENTRE	216	CENTRAL	KIAMBU	KIAMBAA	KIHARA	MAHINDI	DDP	3	MOH	-1.21091	36.7386	{C2F4245A-CA0A-4985-BBAA-2D713D6C7CDD}
36.59431	-0.94349	136	36	KIJABE HOSPITAL	252	CENTRAL	KIAMBU	LARI	KIJABE	KIJABE	GPS	1	MISS	-0.94349	36.59431	{601F204E-9FF7-491B-B87B-6411C44B8675}
36.8684	-1.1077	137	37	KIMATHI DISP	0	CENTRAL	KIAMBU	GITHUNGURI	NGEWA	KIMATHI(KIAMBU)	DDP	4	MOH	-1.1077	36.8684	{44CFDE34-5286-45D9-8CBD-86DDCF567EAC}
36.61036	-0.911261	138	38	KINALE FOREST DISP	217	CENTRAL	KIAMBU	LARI	KINALE	MUKEU(KIAMBU)	1:50000 MAPS	4	MOH	-0.911261	36.61036	{BAB9786C-093E-40D3-9382-0E2ED4E7E04F}
36.6157	-0.908237	139	39	KINALE HEALTH CENTRE	2452	CENTRAL	KIAMBU	LARI	KINALE	MUKEU(KIAMBU)	DDP	3	MOH	-0.908237	36.6157	{C14B4ACA-EA79-4704-8F80-E9997F93C8E3}
36.8203	-1.03614	140	40	KIRATINA DISP	0	CENTRAL	KIAMBU	GITHUNGURI	KOMOTHAI	KARATINA	DDP	4	MOH	-1.03614	36.8203	{9E05C287-8040-4E04-AAAE-1193E0E96970}
36.6964	-0.985135	141	41	KIRIITA DISP	213	CENTRAL	KIAMBU	LARI	GATAMAIYU	KAGWE	1:50000 MAPS	4	MOH	-0.985135	36.6964	{2E40CDD1-BE27-401F-8F32-2B7A4A6039A5}
36.63	-0.97	142	42	KIRIITA MISSION HC	235	CENTRAL	KIAMBU	LARI	KIJABE	BATHI	ILRI VILLAGES	3	MISS	-0.97	36.63	{ABFAFC0E-2651-437B-A342-132C17B3E4C3}
36.605	-1.02791	143	43	LARI HEALTH CENTRE	239	CENTRAL	KIAMBU	LARI	KIRENGA	ESCARPMENT	DDP	3	MOH	-1.02791	36.605	{371FD6EB-16DA-430C-BED1-318432E7B683}
36.6366	-1.11593	144	44	LIMURU HEALTH CENTRE	240	CENTRAL	KIAMBU	LIMURU	LIMURU	KAMIRITHU	DDP	3	MOH	-1.11593	36.6366	{15B36565-0D84-4A16-AFA7-642B5E062501}
36.830408	-1.102112	145	45	LIOKI MISSION DISP	3090	CENTRAL	KIAMBU	GITHUNGURI	IKINU	RIUKI	SUBLOC CENTROID	4	MISS	-1.102112	36.830408	{0931AD44-2160-4011-AD38-377C3C8EB333}
36.771525	-1.192355	146	46	LITTLE SERVANT OF SACRET HEART DISP	435	CENTRAL	KIAMBU	KIAMBAA	KIAMBAA	NJORO(KIAMBU)	SUBLOC CENTROID	4	MISS	-1.192355	36.771525	{14B07BB7-EE30-4722-A953-7AA83181262D}
39.718534	-3.979314	147	61	UTANGE REFUGEE CAMP DISP	0	COAST	MOMBASA	KISAUNI	BAMBURI	MWEMBE LEGEZA	SUBLOC CENTROID	4	NGO	-3.979314	39.718534	{C2165BC4-B83F-4BD4-9394-D1BF453A6D44}
39.6	-4.06546	148	62	WATAMU DISP	558	COAST	MOMBASA	LIKONI	MTONGWE	MTONGWE	ILRI MKT CENTRES	4	MOH	-4.06546	39.6	{EE5D5782-631E-4D60-8B47-69CA745ECFF5}
36.6136	-1.28	149	47	LUSIGETTI HEALTH CENTRE	2437	CENTRAL	KIAMBU	KIKUYU	KARAI	LUSINGETTI	1:50000 MAPS	3	MOH	-1.28	36.6136	{C0AD9D70-9643-4864-8F9C-293D4A5FDA76}
38.654357	-3.67546	150	0	BUGUTA DISP	0	COAST	TAITA TAVETA	VOI	KASIGAU	BUGUTA	SUBLOC CENTROID	4	MOH	-3.67546	38.654357	{5C613A33-EAC2-4F3D-BCF6-C79D39A32B2A}
38.315701	-3.50013	151	1	BURA DISP	704	COAST	TAITA TAVETA	MWATATE	BURA	NYOLO	DANIDA	4	MOH	-3.50013	38.315701	{6783E4CF-967A-48E5-B737-E1AEF3A1EC4F}
36.8	-1.12	152	48	MIGAA DISP	321	CENTRAL	KIAMBU	KIAMBAA	CIANDA	CIANDA	ILRI VILLAGES	4	MOH	-1.12	36.8	{8FA16A47-83BA-4B38-A1CA-D0FCB9679A06}
38.289771	-3.504139	153	2	BURA MISSION DISP	705	COAST	TAITA TAVETA	MWATATE	BURA	NYOLO	DDP	4	MISS	-3.504139	38.289771	{7BFD0ECE-309E-4D79-A224-9B4EB9FCFB03}
37.736031	-3.29582	154	3	CHALA DISP	706	COAST	TAITA TAVETA	TAVETA	CHALA	CHALA	DANIDA	4	MOH	-3.29582	37.736031	{6FEA6EC4-954B-4A94-A843-294CE8E1B2D8}
37.694258	-3.438287	155	4	ELDORO MISSION DISP	707	COAST	TAITA TAVETA	TAVETA	KIMORIGO	KIMORIGO	DDP	4	MISS	-3.438287	37.694258	{3CC14F7E-C665-44D1-9744-BBB689C6DCA0}
36.8	-1.07	156	49	MIGUTA DISP	0	CENTRAL	KIAMBU	GITHUNGURI	GITHUNGURI	KIAIRIA	ILRI VILLAGES	4	MISS	-1.07	36.8	{B0A5F1A5-F416-4030-AFB3-724EDA718279}
38.446301	-3.28928	157	5	GHAZI DISP	708	COAST	TAITA TAVETA	TAUSA	NGOLIA	GHAZI	DANIDA	4	MOH	-3.28928	38.446301	{00FC232B-D91C-4487-AADA-FD181269C349}
36.7	-1.18	158	50	MOST PRECIOUS BLOOD DISP	3903	CENTRAL	KIAMBU	LIMURU	TIGONI	RED HILL	ILRI VILLAGES	4	MISS	-1.18	36.7	{FC37BCBB-73DA-46DF-B97A-E8B5E389B979}
38.60778	-3.51759	159	6	KAJIRE DISP	2883	COAST	TAITA TAVETA	VOI	SAGALLA	KISHAMBA(VOI)	DANIDA	4	MOH	-3.51759	38.60778	{93EB1ACE-2036-4D24-9B64-4242D6751FA6}
36.7257	-1.13378	160	51	NAZARETH HOSPITAL	255	CENTRAL	KIAMBU	LIMURU	KARAMBAINI	KARAMBAINI	1:50000 MAPS	1	MISS	-1.13378	36.7257	{88EE3880-28B4-400D-BFF3-E9FE823A4508}
38.3438	-3.3842	161	7	KASIGAU HEALTH CENTRE	732	COAST	TAITA TAVETA	WUNDANYI	WERUGHA	MLONDO	DANIDA	3	MOH	-3.3842	38.3438	{77E52734-D9E4-40FA-8AF4-6E2E2AE8726D}
37.69194	-3.46046	162	8	KIMORIGO DISP	710	COAST	TAITA TAVETA	TAVETA	KIMORIGO	KIMORIGO	DANIDA	4	MOH	-3.46046	37.69194	{36AF8028-E384-4BD3-B7F9-7F3125306A2D}
36.5942	-1.16975	163	52	NDEIYA HEALTH CENTRE	3928	CENTRAL	KIAMBU	LIMURU	NDEIYA	NDERU	DDP	3	MOH	-1.16975	36.5942	{450DF785-ACF5-481E-BA2D-736F024C46A7}
38.323799	-3.2783	164	9	KISHUSHE DISP	711	COAST	TAITA TAVETA	WUNDANYI	KISHUSHE	KISHUSHE	DANIDA	4	MOH	-3.2783	38.323799	{55D590BE-4FED-441D-8461-EACC941CB3B5}
36.60586	-1.142793	165	53	NDERU DISP	221	CENTRAL	KIAMBU	LIMURU	NDEIYA	NDERU	1:50000 MAPS	4	MOH	-1.142793	36.60586	{E82D738A-517F-4FBF-A9E7-03FD4472B83B}
37.613098	-3.44028	166	10	KITOBO DISP	2884	COAST	TAITA TAVETA	TAVETA	KIMORIGO	KITOBO	DANIDA	4	MOH	-3.44028	37.613098	{7FF59AE2-DFA4-4FA5-9613-5F33D1D77755}
36.70945	-0.984242	167	54	NDURIRI DISP	0	CENTRAL	KIAMBU	LARI	NYANDUMA	GACHOIRE	1:50000 MAPS	4	MISS	-0.984242	36.70945	{20947A9B-44F3-4EEA-84EA-B7E8F947D5DD}
37.63136	-3.455871	168	11	KITOBO DISP	0	COAST	TAITA TAVETA	TAVETA	KIMORIGO	KITOBO	SUBLOC CENTROID	4	MISS	-3.455871	37.63136	{3BABD043-0045-4DB3-84E2-A0BDF76B6406}
36.70901	-0.984685	169	55	NDURIRI DISP	3974	CENTRAL	KIAMBU	LARI	NYANDUMA	GACHOIRE	1:50000 MAPS	4	MOH	-0.984685	36.70901	{5802EDD9-9A3A-4558-88CB-07D8EABBF3F6}
38.681469	-3.81333	170	12	MAKWASINJI DISP	4655	COAST	TAITA TAVETA	VOI	KASIGAU	MAKWASINYI	DANIDA	4	MOH	-3.81333	38.681469	{ADD7F338-A0D8-4440-AEE9-9404517BC064}
38.477242	-3.089864	171	13	MANYANI DISP	3313	COAST	TAITA TAVETA	TSAVO N. PARK	TSAVO N. PARK	TSAVO N. PARK	ILRI MKT CENTRES	4	MOH	-3.089864	38.477242	{4AAB05B6-7C04-4E80-A510-E4DED63E5547}
36.617117	-1.069369	172	56	NGARARIGA MISSION DISP	3100	CENTRAL	KIAMBU	LIMURU	LIMURU	BIBIRIONI	1:50000 MAPS	4	MISS	-1.069369	36.617117	{214BC85C-FC9A-4831-907D-CBBC2242ED45}
38.659203	-3.674076	173	0	MARUNGU DISP	0	COAST	TAITA TAVETA	VOI	KASIGAU	BUGUTA	SUBLOC CENTROID	4	MISS	-3.674076	38.659203	{9110C3CC-9F6A-4FB5-AB18-1E994BB17D71}
37.7561	-3.47483	174	14	MATA DISP	714	COAST	TAITA TAVETA	TAVETA	JIPE	MATA	DANIDA	4	MOH	-3.47483	37.7561	{333A9383-13B2-441A-B275-F0CE32F99EFB}
36.670303	-1.169356	175	57	NGECHA ORTHODOX  DISP	0	CENTRAL	KIAMBU	LIMURU	NGECHA	NGECHA	SUBLOC CENTROID	4	MISS	-1.169356	36.670303	{39C5FF3B-ACC2-4CD6-B588-A2AF943CD03F}
38.383011	-3.3793	176	15	MBALE HEALTH CENTRE	733	COAST	TAITA TAVETA	WUNDANYI	MBALE	MBALE CENTRAL	DANIDA	3	MOH	-3.3793	38.383011	{76791094-C9A2-4746-A5B1-A0D964FF8C7B}
36.863964	-1.092343	177	58	NGEWA HEALTH CENTRE	243	CENTRAL	KIAMBU	GITHUNGURI	NGEWA	NYAGA	1:50000 MAPS	3	MOH	-1.092343	36.863964	{7E476880-E6E2-4692-97F3-B71D6D9FB3C5}
38.313862	-3.40141	178	16	MGANGE DISP	715	COAST	TAITA TAVETA	WUNDANYI	MGANGE	MGANGE NYIKA	DANIDA	4	MOH	-3.40141	38.313862	{EBE0EFD3-12C9-44CE-8825-C9B20E009232}
36.8716	-1.10326	179	59	NYAGA HEALTH CENTRE	0	CENTRAL	KIAMBU	GITHUNGURI	NGEWA	NYAGA	DDP	3	MOH	-1.10326	36.8716	{290AAE2F-720A-49EE-B6CF-231CF5B055A4}
38.32	-3.39	180	17	MGANGE DISP	0	COAST	TAITA TAVETA	WUNDANYI	WERUGHA	WERUGHA	ILRI VILLAGES	4	MISS	-3.39	38.32	{6507B65C-AC73-4C11-B6FC-4F88BE6D0B5E}
38.2421	-3.4314	181	18	MNENGWA  DISP	4008	COAST	TAITA TAVETA	MWATATE	MWAKITAU	GODOMA(TAVETA)	PSI	4	MOH	-3.4314	38.2421	{855ED84F-D364-402D-A339-8E852771AE6F}
36.7031	-1.20204	182	60	NYATHUNA HEALTH CENTRE	260	CENTRAL	KIAMBU	KIKUYU	NYATHUNA	KIRANGARI(KIAMBU)	DDP	3	MOH	-1.20204	36.7031	{DEDD5962-F54F-4A78-9014-567256DF24BA}
38.56205	-3.39091	183	19	MOI VOI DISTRICT HOSPITAL	739	COAST	TAITA TAVETA	VOI	VOI	KALOLENI(TAVETA)	DANIDA	1	MOH	-3.39091	38.56205	{57A71F4B-E1A7-48F0-81FA-A85C17B0FA3D}
36.87118	-1.049952	184	61	P.C.E.A GATHIRUINI DISP	0	CENTRAL	KIAMBU	GITHUNGURI	KOMOTHAI	KIBICHOI	SUBLOC CENTROID	4	MISS	-1.049952	36.87118	{D6798702-2C98-45C6-976A-D4932C3737B2}
38.37886	-3.45746	185	20	MPINZINYI HEALTH CENTRE	734	COAST	TAITA TAVETA	MWATATE	KISHAMBA	KAYA/ILOLE	DANIDA	3	MOH	-3.45746	38.37886	{4355D6E3-EF6E-4ADA-BAA5-ADBE97A544D4}
36.6667	-1.26667	186	62	P.C.E.A. KIKUYU HOSPITAL	2441	CENTRAL	KIAMBU	KIKUYU	KIKUYU	KIKUYU TOWNSHIP	DDP	1	MISS	-1.26667	36.6667	{39E440C6-29CB-404F-A1AA-733F8A82A98C}
38.290909	-3.43486	187	21	MRUGUA DISP	717	COAST	TAITA TAVETA	MWATATE	BURA	MURUGUA	DANIDA	4	MOH	-3.43486	38.290909	{DD0807B5-8616-4E3A-9541-44B241A90432}
38.408401	-3.4139	188	22	MSAU DISP	718	COAST	TAITA TAVETA	TAUSA	RONGE	MSAU/RAHAI	DANIDA	4	MOH	-3.4139	38.408401	{E96B6953-E5CE-42BC-9271-CDC158E8D1AE}
36.661129	-0.790616	189	63	RAGIA FOREST DISP	225	CENTRAL	KIAMBU	LARI	KAMAE	KAMAE	ILRI VILLAGES	4	MOH	-0.790616	36.661129	{FFDA6756-B24A-458E-8F44-BAD5F1E0EA34}
38.136189	-3.40801	190	23	MWAKITAU DISP	719	COAST	TAITA TAVETA	MWATATE	MWAKITAU	MWAKITAU	DANIDA	4	MOH	-3.40801	38.136189	{86720976-081E-4A4E-9E28-0F261AE1D118}
36.6759	-0.791728	191	64	RAGIA HEALTH CENTRE	2449	CENTRAL	KIAMBU	LARI	KAMAE	KAMAE	DDP	3	MOH	-0.791728	36.6759	{603BD538-5CBE-4B51-A26B-5924B750F55D}
38.431301	-3.35282	192	24	MWAMBIRWA DISP	720	COAST	TAITA TAVETA	MWAMBIRWA	RONGE JUU	KISHAU/KIWETO	DANIDA	4	MOH	-3.35282	38.431301	{06A40193-18B5-4DFE-8D29-7797A5FE1DC6}
36.6	-1.18	193	65	THIGIO MISSION DISP	227	CENTRAL	KIAMBU	LIMURU	NDEIYA	THIGIO(KIAMBU)	ILRI VILLAGES	4	MISS	-1.18	36.6	{DF4260C7-3B52-4FD4-BD28-B0D52A51649D}
38.285809	-3.40195	194	25	MWANDA DISP	721	COAST	TAITA TAVETA	WUNDANYI	MWANDA	KISHAMBA(WUNDANYI)	DANIDA	4	MOH	-3.40195	38.285809	{071B0A38-8E81-4D58-872D-99F677DB2B83}
36.6493	-1.12859	195	66	TIGONI SUB-DISTRICT HOSPITAL	257	CENTRAL	KIAMBU	LIMURU	TIGONI	ITHANJI(KIAMBU)	DDP	1	MOH	-1.12859	36.6493	{A65959EB-F5E0-4FF6-AB73-F2620549A07F}
38.368629	-3.50728	196	26	MWATATE HEALTH CENTRE	735	COAST	TAITA TAVETA	MWATATE	MWACHABO	MWACHABO	DANIDA	3	MOH	-3.50728	38.368629	{82C4FC31-FC33-4A87-8D0F-44DC7401CA77}
38.477959	-3.297	197	27	NDOME DISP	723	COAST	TAITA TAVETA	TAUSA	NGOLIA	NDOME	DANIDA	4	MOH	-3.297	38.477959	{B555354B-ABA6-469D-BCE3-32CF624399D2}
36.8083	-1.13366	198	67	TIN'GAN'GA DISP	229	CENTRAL	KIAMBU	KIAMBAA	TING'ANG'A	TING'ANG'A	DDP	4	MISS	-1.13366	36.8083	{7CD20B91-7B17-41E9-B11D-64BE804F29A4}
38.551224	-3.394956	199	35	NDOVU DISP	727	COAST	TAITA TAVETA	VOI	VOI	MWANGEA	ILRI MKT CENTRES	4	MOH	-3.394956	38.551224	{EA2505D0-3772-4696-9D33-C22CEF5056D8}
37.725128	-3.19	200	28	NJUKINI DISP	724	COAST	TAITA TAVETA	TAVETA	NJUKINI	NJUKINI(TAVETA)	DANIDA	4	MOH	-3.19	37.725128	{293E45C1-82E7-4D7F-B3F9-C7C038B1EDF2}
36.6778	-1.04691	201	68	UPLANDS DISP	230	CENTRAL	KIAMBU	LARI	LARI	GITHIRIONI	DDP	4	MOH	-1.04691	36.6778	{13727BBA-F704-4C45-AF06-E54DF3B3E6AB}
38.380901	-3.33836	202	29	NYACHE HEALTH CENTRE	736	COAST	TAITA TAVETA	WUNDANYI	WUMINGU	NYACHE	DANIDA	3	MOH	-3.33836	38.380901	{407D8781-86E8-4A46-94DF-25BE305A4E00}
36.7086	-1.2526	203	69	UTHIRU DISP	231	CENTRAL	KIAMBU	KIKUYU	KINOO	UTHIRU(KIAMBU)	1:50000 MAPS	4	MOH	-1.2526	36.7086	{A01571C9-0074-4C84-9BDC-1FEDB702A7B3}
38.3335	-3.43297	204	30	SAGAIGU DISP	2881	COAST	TAITA TAVETA	MWATATE	BURA	SAGHAIGU	DANIDA	4	MOH	-3.43297	38.3335	{79113A9C-10C4-407E-81FE-5B357618270E}
36.7261	-1.21737	205	70	WANGIGE HEALTH CENTRE	249	CENTRAL	KIAMBU	KIKUYU	NYATHUNA	KARURA(KIKUYU)	1:50000 MAPS	3	MOH	-1.21737	36.7261	{9BC4C131-81BF-4337-A2B2-D75EECC6E267}
38.582191	-3.49354	206	31	SAGALA HEALTH CENTRE	737	COAST	TAITA TAVETA	VOI	SAGALLA	TERI	DANIDA	3	MOH	-3.49354	38.582191	{A443668A-6E34-4F29-9B4F-87B23F94A0C4}
37.2305	-0.563405	207	1	BARICHO HEALTH CENTRE	297	CENTRAL	KIRINYAGA	NDIA	MWERUA	KIANJANG'A	DDP	3	MOH	-0.563405	37.2305	{A1833F6C-13D4-4774-86E9-706FCC8632D4}
38.46846	-3.43161	208	32	SHELEMBA DISP	725	COAST	TAITA TAVETA	TAUSA	RONGE	RONG'E NYIKA	DANIDA	4	MOH	-3.43161	38.46846	{695F84BB-7280-4A32-ADA3-B1E90B721C57}
38.50169	-3.34175	209	33	TAUSA DISP	3923	COAST	TAITA TAVETA	TAUSA	MBOLOLO	TAUSA	DANIDA	4	MOH	-3.34175	38.50169	{DF9F8D45-CB1A-4111-AF2E-6992341CEA81}
37.2387	-0.568805	210	2	BARICHO MISS H C	3082	CENTRAL	KIRINYAGA	NDIA	MWERUA	KIANJANG'A	HD MAPS	3	MISS	-0.568805	37.2387	{90A14258-079B-4947-9E0A-0DD668EC225C}
37.67725	-3.3987	211	34	TAVETA DISTRICT HOSPITAL	740	COAST	TAITA TAVETA	TAVETA	BOMANI	MBOGHONI	DANIDA	1	MOH	-3.3987	37.67725	{2A1686CA-7C2A-45C9-AC0C-B1B7D7130AB9}
37.351234	-0.42234	212	3	CASTLE FOREST DISP	3763	CENTRAL	KIRINYAGA	GICHUGU	KARUMANDI	THUMAITA	1:50000 MAPS	4	MOH	-0.42234	37.351234	{43428036-1796-490C-839C-8E193C73777F}
38.639858	-3.81356	213	36	WERUGHA DISP	729	COAST	TAITA TAVETA	VOI	KASIGAU	RUKANGA(TAVETA)	DANIDA	4	MOH	-3.81356	38.639858	{E25F04FF-6DAA-47AB-94B2-E98EC3DA7947}
38.342159	-3.40885	214	37	WESU DISTRICT HOSPITAL	741	COAST	TAITA TAVETA	WUNDANYI	WUNDANYI	WUNDANYI	DANIDA	1	MOH	-3.40885	38.342159	{54F51FD2-4C18-4978-9A33-2DBD11C07AFD}
37.2597	-0.49407	215	4	CHRISTIAN COMMUNITY SERVICES BASE DISP	0	CENTRAL	KIRINYAGA	CENTRAL	INOI	NDIMI	HD MAPS	4	MISS	-0.49407	37.2597	{6BC9A29E-2748-4860-BA44-63540A797378}
38.359781	-3.41828	216	38	WUNDANYI HEALTH CENTRE	738	COAST	TAITA TAVETA	WUNDANYI	WUNDANYI	WUNDANYI	DDP	3	MOH	-3.41828	38.359781	{19E65895-CED7-4DF9-BB02-1B16DBE0860F}
37.3783	-0.75776	217	5	CIAGINI DISP	86	CENTRAL	KIRINYAGA	MWEA	THIBA	WAMUMU	HD MAPS	4	MOH	-0.75776	37.3783	{EBED50B9-BDE4-47D4-80B2-BCCA19BB4315}
38.354562	-3.469733	218	39	WUSI WUKESIA DISP	730	COAST	TAITA TAVETA	MWATATE	CHAWIA	CHAWIA	DDP	4	MISS	-3.469733	38.354562	{C6BF916E-5F14-4FA4-A523-ED06B10A91D8}
39.014671	-0.151968	219	1	ASAKO DISP	1188	COAST	TANA RIVER	BANGALE	MBALAMBALA	ASAKO	SUBLOC CENTROID	4	MOH	-0.151968	39.014671	{8142FC35-D425-4D4C-99B5-2F92247D9DB6}
37.400901	-0.551802	220	6	DIFATHAAS CATHOLIC DISP	4713	CENTRAL	KIRINYAGA	MWEA	MURINDUKO	KAMUNYANGE	1:50000 MAPS	4	MISS	-0.551802	37.400901	{69C7D53A-81A4-4665-8CD6-25B16BB84945}
39.424629	-2.05182	221	2	ASSA DISP	742	COAST	TANA RIVER	GARSEN	ASSA	ASSA	DANIDA	4	MOH	-2.05182	39.424629	{BDEA683F-B8E9-4A35-92FA-4E26E2FA6942}
37.4125	-0.59514	222	7	DIFATHAS DISP	263	CENTRAL	KIRINYAGA	MWEA	MURINDUKO	KAMUNYANGE	HD MAPS	4	MOH	-0.59514	37.4125	{352E3D74-69C6-4FB9-98A4-D2185ED5D3B7}
39.016659	-0.72541	223	3	BANGALE DISP	743	COAST	TANA RIVER	BANGALE	BANGALE	BANGALE	DANIDA	4	MOH	-0.72541	39.016659	{86C312FA-B7C5-4AE4-B369-0AEE62E39091}
37.4056	-0.50091	224	8	GACHIONGO DISP	264	CENTRAL	KIRINYAGA	GICHUGU	NJUKIINI	NGIRIAMBU	HD MAPS	4	MOH	-0.50091	37.4056	{9D1BFBDB-5538-44F8-822E-7595A07CC4A9}
39.91806	-1.084244	225	4	BURA CATHOLIC DISP(TANA RIVER)	744	COAST	TANA RIVER	BURA	CHEWELE	WADESA	ILRI MKT CENTRES	4	MISS	-1.084244	39.91806	{7D6EC7B2-116A-47EA-973E-025FCA7921DF}
37.3	-0.48	226	32	KIANDAI ACK DISP	4721	CENTRAL	KIRINYAGA	GICHUGU	KIRIMA	GACHIGI	ILRI VILLAGES	4	MISS	-0.48	37.3	{8D2C3B1B-6F8A-4C0C-88A4-18F5B030A15F}
39.838829	-1.18281	227	5	BURA HEALTH CENTRE	791	COAST	TANA RIVER	BURA	BURA	METI	DANIDA	3	MOH	-1.18281	39.838829	{C916302F-DF7E-42DA-B0EB-A73325A68372}
37.2483	-0.48343	228	9	GATHAMBI DISP	265	CENTRAL	KIRINYAGA	CENTRAL	INOI	NDIMI	HD MAPS	4	MOH	-0.48343	37.2483	{9A31FD07-850D-497A-9693-A685A580A55D}
37.2073	-0.48115	229	33	KIANGAI DISP	281	CENTRAL	KIRINYAGA	NDIA	MUKURE	MUKURE	HD MAPS	4	MOH	-0.48115	37.2073	{DD1033E6-7604-495A-B104-BE20D26FB6C8}
39.82103	-1.18688	230	6	BURA NYS DISP	745	COAST	TANA RIVER	BURA	BURA	METI	DANIDA	4	MOH	-1.18688	39.82103	{73A654CB-AAE1-4481-BD1E-B1847FF9D49F}
37.4391	-0.71293	231	10	GATHIGIRIRI DISP	266	CENTRAL	KIRINYAGA	MWEA	TEBERE	KARUKUNGU	HD MAPS	4	MOH	-0.71293	37.4391	{7BE93298-A821-4B25-A29D-2688D33FB78A}
37.3129	-0.49635	232	34	KIANG'OMBE DISP	282	CENTRAL	KIRINYAGA	GICHUGU	KABARE	KIRITINI	HD MAPS	4	MOH	-0.49635	37.3129	{3E14BFC8-66A4-4B7F-83AD-858B74414EF2}
37.1624	-0.5883	233	35	KIANJEGE DISP	283	CENTRAL	KIRINYAGA	NDIA	KIINE SOUTH	NYANGIO	HD MAPS	4	MOH	-0.5883	37.1624	{6956A575-4B94-45D2-8BCE-FEB7E2F47FCB}
40.02169	-1.43728	234	7	CHEWANI DISP	748	COAST	TANA RIVER	GALORE	CHEWANI	CHEWANI	DANIDA	4	MOH	-1.43728	40.02169	{D536F051-51F4-41F0-8BC2-8D568075463C}
37.316	-0.45683	235	11	GATUGURA DISP	267	CENTRAL	KIRINYAGA	GICHUGU	KIRIMA	MUTIGE	HD MAPS	4	MOH	-0.45683	37.316	{DBBBC1FB-D15F-4C59-B868-16A7DD1B0529}
37.3296	-0.50091	236	36	KIANYAGA H C	299	CENTRAL	KIRINYAGA	GICHUGU	BARAGWI	GATU	HD MAPS	3	MOH	-0.50091	37.3296	{FF76AD36-2E89-445B-838A-59EEAF0CAF25}
37.3798	-0.45759	237	12	GATUMBI S D A DISP	268	CENTRAL	KIRINYAGA	GICHUGU	NGARIAMA	THIRIKWA	HD MAPS	4	MISS	-0.45759	37.3798	{35DA9A62-6931-42B0-A8D2-8AD9DC959AD7}
39.951618	-1.158	238	8	CHEWELE DISP	749	COAST	TANA RIVER	BURA	CHEWELE	CHEWELE	DANIDA	4	MOH	-1.158	39.951618	{E72A9D9A-1DD3-4B34-BA40-56EC0DC5EF19}
37.3426	-0.51079	239	37	KIANYAGA MISS H C	3081	CENTRAL	KIRINYAGA	GICHUGU	BARAGWI	RWAMBITI	HD MAPS	3	MISS	-0.51079	37.3426	{5BD21371-6D77-4463-822A-44CCA6AEC42D}
37.284	-0.46443	240	13	GATWE DISP	269	CENTRAL	KIRINYAGA	CENTRAL	KERUGOYA	KIMANDI	HD MAPS	4	MOH	-0.46443	37.284	{02A24565-238E-4575-83E1-E98C8E799682}
39.164769	-1.191098	241	9	CHIFIRI DISP	0	COAST	TANA RIVER	GALORE	CHIFIRI	CHIFIRI	DDP	4	MOH	-1.191098	39.164769	{F3F4CE6C-4C3F-4528-A9D6-2F14B7F46534}
37.2035	-0.51231	242	38	KIARAGANA DISP	284	CENTRAL	KIRINYAGA	NDIA	MUKURE	KANYOKORA	HD MAPS	4	MOH	-0.51231	37.2035	{A5CD6DE5-1F43-45F6-9B88-D461FC286C9D}
37.38695	-0.497068	243	14	GIRIAMBU ACK DISP	0	CENTRAL	KIRINYAGA	GICHUGU	NJUKIINI	NGIRIAMBU	SUBLOC CENTROID	4	MISS	-0.497068	37.38695	{9A6D73A1-A62C-4768-909C-9C8CFD66BC0B}
39.45	-1.57	244	10	DABA DISP	750	COAST	TANA RIVER	GALORE	WAYU	WAYU	ILRI VILLAGES	4	MISS	-1.57	39.45	{AD6AB973-0D7B-43F9-8D42-E8E8DD961BB6}
37.1495	-0.55638	245	39	KIBIRIGWI DISP	285	CENTRAL	KIRINYAGA	NDIA	KIINE SOUTH	NYANGIO	HD MAPS	4	MOH	-0.55638	37.1495	{14C8DBF8-C18A-47CD-B3FE-FB0B3C509EEA}
37.1792	-0.62098	246	15	GITHUANI C P K DISP	4716	CENTRAL	KIRINYAGA	NDIA	KIINE SOUTH	THIGIRICHI	HD MAPS	4	MISS	-0.62098	37.1792	{20ABF07C-A2FC-4CCD-9521-1ED258D1F765}
39.11	-2.97	247	12	ELDORO DISP(TANA RIVER)	751	COAST	TANA RIVER	TSAVO E  N .PARK	TSAVO E  N .PARK	TSAVO E N PARK	ILRI VILLAGES	4	MISS	-2.97	39.11	{59A8014C-8C45-4667-927E-53A2B99DA0C9}
37.3651	-0.61705	248	40	KIMBIMBI HEALTH CENTRE	300	CENTRAL	KIRINYAGA	MWEA	NYANGATI	NYANGATI	GPS	3	MOH	-0.61705	37.3651	{4ECAA74A-7DF7-479E-87FB-E90547175025}
37.3836	-0.47051	249	16	GITHURE DISP	4724	CENTRAL	KIRINYAGA	GICHUGU	NGARIAMA	THIRIKWA	HD MAPS	4	MISS	-0.47051	37.3836	{4EA572CB-07B1-4024-909D-507A29C8DA44}
40.02795	-1.499007	250	13	EMMAUS DISP	752	COAST	TANA RIVER	GALORE	KIARIKUNGU	KIARIKUNGU	ILRI MKT CENTRES	4	MISS	-1.499007	40.02795	{921C846C-C94A-48DE-8365-FFA313A25DC2}
37.474	-0.72129	251	41	KIUMBUINI DISP	286	CENTRAL	KIRINYAGA	MWEA	TEBERE	KARUKUNGU	HD MAPS	4	MOH	-0.72129	37.474	{0341C125-FB5D-40DD-A280-0407408505F4}
37.3988	-0.5237	252	17	JESMOND MBURI DISP	0	CENTRAL	KIRINYAGA	GICHUGU	NJUKIINI	MIRICHI	HD MAPS	4	MISS	-0.5237	37.3988	{F24AA066-89E8-46C5-A3EE-69FC67D8D2E5}
40.10762	-2.27091	253	14	GARSEN HEALTH CENTRE	792	COAST	TANA RIVER	GARSEN	BILISA	CHIRA	DANIDA	3	MOH	-2.27091	40.10762	{3454908A-288A-4CD7-8911-1F2484DEAB22}
37.32517	-0.56432	254	42	KUTUS CATHOLIC DISP	4714	CENTRAL	KIRINYAGA	CENTRAL	KUTUS	KAMUIGUA	GPS	4	MISS	-0.56432	37.32517	{CB265E38-FFC6-4552-A85D-85A326E7BCA3}
37.3175	-0.51458	255	18	KABARE DISP	270	CENTRAL	KIRINYAGA	GICHUGU	KABARE	KIRITINI	HD MAPS	4	MOH	-0.51458	37.3175	{372C4DB6-7B22-4BF3-9409-DF133A6B7C55}
40.030251	-1.4988	256	15	HOLA DISTRICT HOSPITAL	795	COAST	TANA RIVER	GALORE	KIARIKUNGU	KIARIKUNGU	DANIDA	1	MOH	-1.4988	40.030251	{75FF5581-7D3C-487A-BAEB-FBEE7534E58E}
37.4	-0.48	257	43	MBIRI ACK DISP	4727	CENTRAL	KIRINYAGA	GICHUGU	NJUKIINI	NGERWE	ILRI VILLAGES	4	MISS	-0.48	37.4	{1AE25DA1-424D-40C5-8E48-1D0726F4EC82}
37.227	-0.63009	258	19	KAGIO CATHOLIC DISP	271	CENTRAL	KIRINYAGA	NDIA	MWERUA	KITHUMBU	HD MAPS	4	MISS	-0.63009	37.227	{18384CFC-15DC-4E11-92B9-2CCE3739FD62}
40.03208	-1.512465	259	16	HOLA MISSION DISP	2454	COAST	TANA RIVER	GALORE	ZUBAKI	HOLA	SUBLOC CENTROID	4	MISS	-1.512465	40.03208	{265F34C7-BF15-4723-8E3C-EB8A96C04B82}
37.29279	-0.52252	260	44	MBURI ACK DISP	4729	CENTRAL	KIRINYAGA	CENTRAL	KERUGOYA	KAITHERI	1:50000 MAPS	4	MISS	-0.52252	37.29279	{301E3E1A-E71F-41AB-ADCB-6324CC6CC9EE}
39.918406	-1.084244	261	17	HURUMA DISP	753	COAST	TANA RIVER	BURA	CHEWELE	WADESA	ILRI MKT CENTRES	4	MISS	-1.084244	39.918406	{398F5BC4-5FE0-430C-8548-C9023304866E}
37.23641	-0.47139	262	20	KAGUMO DISP	272	CENTRAL	KIRINYAGA	NDIA	MUTIRA	KABARI(NDIA)	GPS	4	MOH	-0.47139	37.23641	{8AF16E50-E389-414D-82C6-AADA2155E37C}
40.122978	-2.29391	263	18	IDSOWE DISP	754	COAST	TANA RIVER	GARSEN	BILISA	GARSEN	DANIDA	4	MOH	-2.29391	40.122978	{2C65716A-6121-4F63-A27F-490680C921BB}
37.3099	-0.44391	264	21	KAMWETI DISP	274	CENTRAL	KIRINYAGA	GICHUGU	KIRIMA	NJUKU	HD MAPS	4	MOH	-0.44391	37.3099	{57052718-B5D6-45CB-9385-67DC73DFDE54}
37.30495	-0.432433	265	45	MUGUMO (ACK) DISP	4720	CENTRAL	KIRINYAGA	GICHUGU	KIRIMA	NJUKU	1:50000 MAPS	4	MISS	-0.432433	37.30495	{818AE2FF-E4C7-4050-8DDF-889B3994F609}
40.453161	-2.473381	266	19	KAU DISP	755	COAST	TANA RIVER	KIPINI	KILELENGWANI	KAU	SUBLOC CENTROID	4	MOH	-2.473381	40.453161	{A4D6BBCF-0F24-488E-9C3F-7CE14C29989D}
37.3038	-0.66505	267	22	KANDONGO DISP	275	CENTRAL	KIRINYAGA	MWEA	THIBA	NGUKA	HD MAPS	4	MOH	-0.66505	37.3038	{4EFF007A-766D-41AB-8716-9D888D3D8F70}
37.4634	-0.67797	268	46	MUMBUINI DISP	3860	CENTRAL	KIRINYAGA	MWEA	MURINDUKO	MIUU	HD MAPS	4	MOH	-0.67797	37.4634	{4F887143-ECE5-41EB-A1D1-2BAF0D6C4E80}
39.9648	-1.47434	269	20	KIARUKUNGU DISP	756	COAST	TANA RIVER	GALORE	KALKACHA	DAYATE	1:50000 MAPS	4	MISS	-1.47434	39.9648	{A3793749-4EFB-4874-A0AF-4028EFBF6E06}
37.2719	-0.48951	270	23	KANGAITA DISP	276	CENTRAL	KIRINYAGA	CENTRAL	KERUGOYA	KAGUYU(CENTRAL)	HD MAPS	4	MOH	-0.48951	37.2719	{6BF4B1B7-AFB1-4CDA-AED6-91DD20614B8A}
40.216583	-2.422858	271	21	KIPAO DISP	0	COAST	TANA RIVER	GARSEN	KIPAO	KIPAO	SUBLOC CENTROID	4	MOH	-2.422858	40.216583	{81319F94-572C-463B-B485-CC4D37B446FE}
37.254	-0.621	272	47	MUNGANGA CPK DISP	289	CENTRAL	KIRINYAGA	NDIA	MWERUA	KITHUMBU	ILRI MKT CENTRES	4	MISS	-0.621	37.254	{8D6DBFC0-9CCA-41F1-A19E-354B7CD5C9E7}
40.541761	-2.5308	273	23	KIPINI HEALTH CENTRE	793	COAST	TANA RIVER	KIPINI	KIPINI	KIPINI	DANIDA	3	MOH	-2.5308	40.541761	{637BEDD0-03BA-47F9-AF38-3DBA4DF62C5B}
37.44077	-0.57294	274	48	MURINDUKO DISP	3035	CENTRAL	KIRINYAGA	MWEA	MURINDUKO	MUGAMBA-CIURA	GPS	4	MOH	-0.57294	37.44077	{8A601B3E-7F99-42B4-B275-7423C1C93177}
37.221234	-0.582134	275	24	KANGARU HEALTH CENTRE	908	CENTRAL	KIRINYAGA	NDIA	MWERUA	MAITHARUI	1:50000 MAPS	3	MOH	-0.582134	37.221234	{CC4A6BCE-743E-4DA6-B20F-1CE382795289}
37.2726	-0.50243	276	25	KARAINI C P K DISP	4719	CENTRAL	KIRINYAGA	CENTRAL	KERUGOYA	KAGUYU(CENTRAL)	HD MAPS	4	MISS	-0.50243	37.2726	{2F1AC229-42D0-4793-8EDB-8A905708019B}
39.359733	-0.19679	277	24	KORATI DISP	2506	COAST	TANA RIVER	BANGALE	BUWA	KORATI	SUBLOC CENTROID	4	MOH	-0.19679	39.359733	{CC058971-B811-4B95-B620-28BDB244813D}
37.3038	-0.73269	278	49	MUTHITHI DISP	290	CENTRAL	KIRINYAGA	MWEA	MUTITHI	KABIRIRI	HD MAPS	4	MOH	-0.73269	37.3038	{138B325A-BC46-4211-AE6E-488B4EB37D45}
39.607311	-0.47267	279	25	MADOGO HEALTH CENTRE	794	COAST	TANA RIVER	MADOGO	MADOGO	MADOGO	DANIDA	3	MOH	-0.47267	39.607311	{FC8DD31D-FA5D-4F7B-BE46-E7FE2DD77F96}
40.1135	-1.903	280	26	MAJENGO DISP	758	COAST	TANA RIVER	WENJE	GWANO	HARA(TRIVER)	ILRI MKT CENTRES	4	MOH	-1.903	40.1135	{416FA94E-41E4-4E8F-9EF6-AB96E3E13BD9}
37.3456	-0.45683	281	27	KARUMANDI DISP	277	CENTRAL	KIRINYAGA	GICHUGU	KARUMANDI	KIARURI	HD MAPS	4	MOH	-0.45683	37.3456	{F9C12FA5-11BD-4B35-B3EE-A778B07CE39D}
37.23	-0.48	282	50	MUTIRA ACK DISP	4718	CENTRAL	KIRINYAGA	NDIA	MUTIRA	KAGUMO(KIRINYAGA)	ILRI VILLAGES	4	MISS	-0.48	37.23	{B4732E36-75F0-49CA-9B89-33DA91B2BD7A}
40.000669	-1.3372	283	27	MAKERE DISP	760	COAST	TANA RIVER	GALORE	MAKERE	BUBU	DANIDA	4	MOH	-1.3372	40.000669	{EAC792F2-0DFD-42ED-95DE-AE78767DB07D}
37.27838	-0.49509	284	28	KERUGOYA CATHOLIC DISP	278	CENTRAL	KIRINYAGA	CENTRAL	KERUGOYA	KAGUYU(CENTRAL)	GPS	4	MISS	-0.49509	37.27838	{ED0580AD-8FF0-4ADD-9A63-B2C41B8649FC}
40.009009	-1.331081	285	28	MAKERE DISP	3817	COAST	TANA RIVER	GALORE	MAKERE	BUBU	1:50000 MAPS	4	MISS	-1.331081	40.009009	{01906291-23F2-4656-995F-F7C4DD165AC1}
37.34924	-0.66137	286	52	MWEA MISS HOSPITAL	302	CENTRAL	KIRINYAGA	MWEA	THIBA	NGUKA	GPS	1	MISS	-0.66137	37.34924	{55CF45B3-AFD8-4881-A10C-9D6E83EE846C}
37.27819	-0.50107	287	29	KERUGOYA CPK DISP	279	CENTRAL	KIRINYAGA	CENTRAL	KERUGOYA	KAGUYU(CENTRAL)	GPS	4	MISS	-0.50107	37.27819	{61E4F4FC-6E15-40F1-8FE4-3E7CAB1B461E}
37.3828	-0.50167	288	53	NGIRIAMBU DISP	4728	CENTRAL	KIRINYAGA	GICHUGU	NJUKIINI	NGIRIAMBU	HD MAPS	4	MISS	-0.50167	37.3828	{087FD3A9-6FE4-43BC-8366-5B69D4F8B03C}
40.07	-2.12	289	29	MAREMBO DISP	0	COAST	TANA RIVER	GARSEN	MWINA	SERA	ILRI VILLAGES	4	MOH	-2.12	40.07	{9FDFB767-2A44-42C1-ADE8-E8747650A2E3}
37.316	-0.68633	290	54	NGUKA DISP	292	CENTRAL	KIRINYAGA	MWEA	THIBA	THIBA	HD MAPS	4	MOH	-0.68633	37.316	{8AA53950-A339-46A8-B8B7-93FA46382298}
37.2805	-0.50132	291	30	KERUGOYA DISTRICT HOSPITAL	301	CENTRAL	KIRINYAGA	CENTRAL	KERUGOYA	KAGUYU(CENTRAL)	GPS	1	MOH	-0.50132	37.2805	{EAE7B9F4-5308-4F37-873B-7E016D7C36D3}
37.2924	-0.70913	292	55	NJEGAS DISP	293	CENTRAL	KIRINYAGA	MWEA	MUTITHI	KABIRIRI	HD MAPS	4	MOH	-0.70913	37.2924	{C66DA3F6-4C15-4FB3-B100-B2E13BFB644B}
39.92	-1.1	293	31	MARYKNOLL DISP	763	COAST	TANA RIVER	BURA	CHEWELE	WADESA	ILRI VILLAGES	4	MISS	-1.1	39.92	{EC9A2DB0-21EA-4BB1-8109-8315FA8539AF}
37.4018	-0.47279	294	31	KIAMUTUGU HEALTH CENTRE	280	CENTRAL	KIRINYAGA	GICHUGU	NJUKIINI	NGERWE	HD MAPS	3	MOH	-0.47279	37.4018	{AE621EEA-C196-48BE-B40E-77C3E0E75555}
37.2187	-0.67113	295	56	SAGANA H C	304	CENTRAL	KIRINYAGA	NDIA	KIINE SOUTH	SAGANA(KIRINYAGA)	HD MAPS	3	MOH	-0.67113	37.2187	{17B6C5D0-BAFD-4BD4-9173-5E56A835E7D5}
40.00832	-1.50592	296	33	MAUMAU SEC SUB-HEALTH CENTRE	761	COAST	TANA RIVER	GALORE	KIARIKUNGU	KIARIKUNGU	DANIDA	3	MOH	-1.50592	40.00832	{D85ECE45-F559-4FD2-8AB7-5403A166AA16}
40.135109	-2.18453	297	34	MAZIWA DISP	797	COAST	TANA RIVER	GARSEN	MWINA	SERA	DANIDA	4	MOH	-2.18453	40.135109	{E9DC1DA0-039B-4BC7-8121-0430A08EFAEF}
37.2308	-0.65213	298	57	SAGANA MISS DISP	294	CENTRAL	KIRINYAGA	NDIA	KIINE SOUTH	SAGANA(KIRINYAGA)	HD MAPS	4	MISS	-0.65213	37.2308	{46476D9A-022A-422A-A183-6A1D49F7EE6E}
39.066174	-1.134399	299	35	MBALAMBALA DISP	765	COAST	TANA RIVER	GALORE	CHIFIRI	CHIFIRI	ILRI MKT CENTRES	4	MOH	-1.134399	39.066174	{19640DE1-50A2-4D94-9B26-086857EF53E8}
37.3258	-0.51838	300	58	ST ANDREWS MBIRI DISP	3972	CENTRAL	KIRINYAGA	GICHUGU	KABARE	KIRITINI	HD MAPS	4	MISS	-0.51838	37.3258	{48DF77E9-3F57-4452-ACEF-B34864DC4472}
37.262	-0.72281	301	59	ST LUKE'S MUNGAGA DISP	0	CENTRAL	KIRINYAGA	MWEA	MUTITHI	RUKANGA(KIRINYAGA)	HD MAPS	4	MISS	-0.72281	37.262	{CA14DAF6-242B-4AFB-A815-9AFE5ED74BCC}
37.3327	-0.70457	302	61	THIBA DISP	295	CENTRAL	KIRINYAGA	MWEA	THIBA	THIBA	HD MAPS	4	MOH	-0.70457	37.3327	{0FE71FFE-4A08-4E20-99DE-367A03F12B84}
40.149052	-1.97791	303	39	MNAZINI DISP	768	COAST	TANA RIVER	GARSEN	NDERA	BAOMO	DANIDA	4	MOH	-1.97791	40.149052	{A64A4764-47F0-4A25-BB6B-7A4F77D34ABD}
37.3585	-0.43935	304	62	THUMAITA DISP	4723	CENTRAL	KIRINYAGA	GICHUGU	KARUMANDI	THUMAITA	HD MAPS	4	MISS	-0.43935	37.3585	{1C44511C-FE49-4C54-88D6-F32DFA045B6B}
39.632476	-0.474663	305	40	MORORO HEALTH CENTRE	3818	COAST	TANA RIVER	MADOGO	MORORO	MORORO	SUBLOC CENTROID	3	MOH	-0.474663	39.632476	{BBFD825A-A35A-49DD-85EA-39A77BA9E564}
36.852509	-0.739723	306	1	AIC MUNUNGA DISP	389	CENTRAL	MARAGUA	KIGUMO	KINYONA	GACHARAGE(KIGUMO)	ILRI MKT CENTRES	4	MISS	-0.739723	36.852509	{66DF2DE6-F09D-4300-912A-8C336B5917ED}
39.429224	-0.296412	307	41	MULANJO DISP	769	COAST	TANA RIVER	MADOGO	SAKA	MLANJO	SUBLOC CENTROID	4	MOH	-0.296412	39.429224	{187EFA84-886F-486F-A8F1-A43F287A3CA9}
37.19762	-0.9064	308	2	DON BOSCO MAKUYU DISP	4162	CENTRAL	MARAGUA	MAKUYU	MAKUYU	GAKUNGU	GPS	4	MISS	-0.9064	37.19762	{2A18D1AB-8728-4B4B-ADF2-DCA32477CB18}
36.977445	-0.852765	309	3	GAICHANJIRU MISSION HOSPITAL	388	CENTRAL	MARAGUA	KANDARA	ITHIRU	GAKUI/KARIMAMWARO	DHMT	1	MISS	-0.852765	36.977445	{B6F94595-8FD8-4CC9-BF26-7F73966704C5}
39.851012	-0.85945	310	42	NANIGHI DISP	771	COAST	TANA RIVER	BURA	NANIGHI	NANIGHI(TRIVER)	DDP	4	MOH	-0.85945	39.851012	{B176D17B-0BDB-4219-B38B-E849E6FF5C24}
36.9013	-0.761775	311	4	GIKOE DISP	315	CENTRAL	MARAGUA	KIGUMO	KINYONA	KAMUKABI	1:50000 MAPS	4	MOH	-0.761775	36.9013	{165423C0-588E-42DE-BE4E-0C58FFB6541C}
39.888416	-0.98261	312	43	NANIGHI NYS DISP	770	COAST	TANA RIVER	BURA	NANIGHI	NANIGHI(TRIVER)	DDP	4	MOH	-0.98261	39.888416	{F4C652EF-358D-4698-96A0-FFCC11588FA0}
36.9	-0.82	313	5	GITHUMU HEALTH CENTRE	0	CENTRAL	MARAGUA	KANDARA	RUCHU	GITHUMU	ILRI VILLAGES	3	MISS	-0.82	36.9	{36F22B32-C0EE-4A04-B7C7-8DBD4F395E91}
40.201099	-2.41221	314	44	NGAO SUB-DISTRICT HOSPITAL	796	COAST	TANA RIVER	GARSEN	KIPAO	KIPAO	DANIDA	1	MOH	-2.41221	40.201099	{0FC5E923-6996-4820-A665-F739DE41A1DC}
36.8668	-0.81464	315	6	GITURU DISP	320	CENTRAL	MARAGUA	KANDARA	RUCHU	GITURU	1:50000 MAPS	4	MISS	-0.81464	36.8668	{72A128E1-0F22-4379-9CFF-F165F39E4535}
40.193821	-2.46857	316	45	ODA DISP	772	COAST	TANA RIVER	GARSEN	NGAO	GOLBANTI	DANIDA	4	MOH	-2.46857	40.193821	{6B43C4CB-8763-4A98-B461-D3124F764722}
37.070665	-0.816915	317	7	ICHAGAKI HEALTH CENTRE	390	CENTRAL	MARAGUA	MARAGUA	ICHAGAKI	ICHAGAKI	DHMT	3	MISS	-0.816915	37.070665	{C97172A0-F348-43AC-80B7-7AD36E242DAE}
40.42429	-2.509831	318	46	OZI DISP	773	COAST	TANA RIVER	KIPINI	KONE MANSA	ODOLE	DDP	4	MOH	-2.509831	40.42429	{044DE6C3-4C73-43D5-BFD9-1F198265FCA2}
40.068272	-1.6107	319	47	PUMWANI DISP	775	COAST	TANA RIVER	WENJE	NDURA	HANDAMPIA	DANIDA	4	MOH	-1.6107	40.068272	{F87627CA-0779-4B49-9FFE-AF036B184472}
37.080265	-0.891818	320	0	KAGUMOINI DISP	0	CENTRAL	MARAGUA	KANDARA	GAICHANJIRU	KAGUMOINI(MARAGUA)	DHMT	4	MOH	-0.891818	37.080265	{E3CBBAB8-6863-4A66-99C0-A6604A5E9F2A}
40.297727	-2.579019	321	50	SEMIKARO DISP	777	COAST	TANA RIVER	KIPINI	CHARA	SEMIKARO	DDP	4	MOH	-2.579019	40.297727	{ED6A1C9F-41D8-4072-A596-1E326181CF99}
36.96123	-0.881234	322	8	KAGUTHI DISP	2710	CENTRAL	MARAGUA	KANDARA	ITHIRU	KAGUTHI	1:50000 MAPS	4	MOH	-0.881234	36.96123	{1EE109A7-477F-41D8-AB15-C793EBA3C809}
40.132089	-2.581755	323	53	TARASA DISP	3609	COAST	TANA RIVER	GARSEN	WACHU-ODA	KURAWA	DDP	4	MISS	-2.581755	40.132089	{71E3F279-DA93-4956-808D-9AC5324011DB}
37.07856	-0.85942	324	9	KAGWATHI SDA DISP	0	CENTRAL	MARAGUA	MARAGUA	KAHUMBU	MUGUMOINI(MARAG)	GPS	4	MISS	-0.85942	37.07856	{26F6C28E-A106-4624-A408-EE669FD1C33B}
39.245279	-1.722188	325	55	TITILA DISP	783	COAST	TANA RIVER	GALORE	WALDENA	TITILA	SUBLOC CENTROID	4	MISS	-1.722188	39.245279	{B0226DF2-715A-4F0F-BD23-D77DEA5D5AD1}
37.17814	-0.84289	326	10	KAMAHUHA DISP	328	CENTRAL	MARAGUA	MAKUYU	KAMAHUHA	KAMAHUHA	GPS	4	MOH	-0.84289	37.17814	{919EAA91-0C93-4B06-B4C8-B3B4015CA560}
39.9946	-1.41398	327	56	UMOJA DISP	784	COAST	TANA RIVER	GALORE	KIARIKUNGU	MATANYA(TRIVER)	1:50000 MAPS	4	MISS	-1.41398	39.9946	{5CF8DF47-FFD7-4394-9A51-7DF5E1906F5C}
37.25123	-0.812354	328	11	KAMBITI DISP	3367	CENTRAL	MARAGUA	MAKUYU	KAMBITI	KAMBITI(MARAGUA)	1:50000 MAPS	4	MOH	-0.812354	37.25123	{431CA088-3D5B-4C28-A6D5-EB8E16C72A05}
39.059394	-1.691848	329	57	WALDENA AIC DISP	786	COAST	TANA RIVER	GALORE	WALDENA	WALDENA	SUBLOC CENTROID	4	MISS	-1.691848	39.059394	{37ED4A52-206F-4E93-B9EE-3E7949ED7BA0}
39.02536	-1.61078	330	58	WALDENA DISP	787	COAST	TANA RIVER	GALORE	WALDENA	WALDENA	DANIDA	4	MOH	-1.61078	39.02536	{4DC6BCAB-95ED-4B20-B12E-B2119F10FAEC}
36.976049	-0.785806	331	0	KAMUNGANGA DISP	4844	CENTRAL	MARAGUA	KIGUMO	KIGUMO	GACHOCHO	DHMT	4	MISS	-0.785806	36.976049	{E6EFC5A0-0B27-4F29-B290-28AB3A31CDD8}
39.583912	-1.53075	332	59	WAYU DISP	788	COAST	TANA RIVER	GALORE	WAYU	WAYU	DANIDA	4	MOH	-1.53075	39.583912	{B984C059-B9A7-47B5-A6FB-C895584AF2E4}
37.038699	-0.897239	333	12	KANDARA HEALTH CENTRE	377	CENTRAL	MARAGUA	KANDARA	MURUKA	GATITU/NGUTHIRU	DHMT	3	MOH	-0.897239	37.038699	{96B0583F-FD03-4163-99A4-97C6591A8529}
36.8958	-0.718632	334	46	MURARANDIA DISP	362	CENTRAL	MURANGA	KAHURO	MURARANDIA	MURARANDIA	1:50000 MAPS	4	MOH	-0.718632	36.8958	{EBDE444A-2D58-4F18-9DFA-5767C6DB111C}
36.797738	-0.781589	335	0	KANDERENDU DISP	0	CENTRAL	MARAGUA	KIGUMO	KANGARI	MAKOMBOKI	DHMT	4	MOH	-0.781589	36.797738	{8AE88DFE-7135-486D-AAAA-5D956382F268}
40.164164	-2.229695	336	60	WEMA MISSION DISP	789	COAST	TANA RIVER	GARSEN	SALAMA	WEMA	SUBLOC CENTROID	4	MISS	-2.229695	40.164164	{F69DB558-88B6-4110-AC29-5321FF5B6FED}
36.97306	-0.74315	337	47	MURIRANJAS SUB-DISTRICT HOSP.	394	CENTRAL	MURANGA	KAHURO	MUGOIRI	KAHURO	GPS	1	MOH	-0.74315	36.97306	{6A3818DF-584F-4024-9319-B34B1007F8F6}
40.098	-1.786	338	61	WENJE CATHOLIC DISP	3608	COAST	TANA RIVER	WENJE	GWANO	WENJE	ILRI MKT CENTRES	4	MISS	-1.786	40.098	{E7F39224-052B-4899-82CF-6F75B3A26D73}
36.95746	-0.63943	339	48	NYAKIANGA DISP	369	CENTRAL	MURANGA	MATHIOYA	NJUMBI	NJUMBI	GPS	4	MOH	-0.63943	36.95746	{87C82BB9-460D-45D0-9431-60A1F12B87ED}
36.851234	-0.781234	340	13	KANGARI DISP	330	CENTRAL	MARAGUA	KIGUMO	KANGARI	KANGARI	1:50000 MAPS	4	MOH	-0.781234	36.851234	{4E82A228-3620-4E0C-A346-B800E9E406AA}
37.01707	-0.86633	341	14	KARITI DISP	2709	CENTRAL	MARAGUA	KANDARA	KAGUNDUINI	KARITI	GPS	4	MOH	-0.86633	37.01707	{300482E6-B8F0-43B5-98B3-DC6A0022123F}
40.109058	-1.78983	342	62	WENJE DISP	790	COAST	TANA RIVER	WENJE	GWANO	WENJE	DANIDA	4	MOH	-1.78983	40.109058	{159A20B1-25F9-4FCF-B9DB-66F97B1262E9}
36.9328	-0.659602	343	49	RWATHIA DISP	2712	CENTRAL	MURANGA	MATHIOYA	RWATHIA	RWATHIA	DDP	4	MOH	-0.659602	36.9328	{23F97250-567D-4CBF-B542-74402DE7FE63}
37.7684	0.006292	344	1	CHAARIA MISSION HOSP	3043	EASTERN	CENTRAL MERU	ABOTHUGUCHI EAST	NDURUMA	GAITU	DSA/DFH(MOH)-UNFPA REPORT	1	MISS	0.006292	37.7684	{EA7515A2-9E97-4639-89D3-5DA1D4DA6167}
36.831081	-0.6667	345	50	TUTHU SUB HEALTH CENTRE	386	CENTRAL	MURANGA	KANGEMA	KIRURI	TUTHU	1:50000 MAPS	3	MOH	-0.6667	36.831081	{A5F70DD6-EC33-4BF3-BF48-2BFC1CB133A0}
36.97549	-0.83194	346	15	KARIUA DISP	333	CENTRAL	MARAGUA	KANDARA	RUCHU	KARIUA	GPS	4	MOH	-0.83194	36.97549	{6FE25274-6FA5-4AE5-B33C-A8BED8174511}
37.651071	0.049779	347	2	CIERA CATHOLIC DISP	3589	EASTERN	CENTRAL MERU	MIRIGA MIERU WEST	NTIMA	TUNTU	ILRI MKT CENTRES	4	MISS	0.049779	37.651071	{013754EA-5CB0-44BC-9E22-552C7CBE5102}
36.98123	-0.591234	348	51	WAHUNDURA DISP	3398	CENTRAL	MURANGA	MATHIOYA	KAMACHARIA	KAMUNE	DISTRICT ESTIMATES	4	MOH	-0.591234	36.98123	{BC0DA571-0E5A-40ED-97AC-D38B5E0A12BC}
37.6622	-0.068017	349	3	CONSOLATA NKUBU MISS. HOSPITAL	1182	EASTERN	CENTRAL MERU	NKUENE	NKUENE	KATHERA(CMERU)	HD MAPS	1	MISS	-0.068017	37.6622	{527DE2AB-75AC-42DB-9DD4-230696435BB1}
37.0117	-0.724185	350	52	WANJENGI DISP	375	CENTRAL	MURANGA	KAHURO	WEITHAGA	WANJENGI	1:50000 MAPS	4	MOH	-0.724185	37.0117	{33EFA050-CA7F-4F56-B22E-266B5E35D7A5}
36.827	-0.748188	351	16	KINYONA DISP	343	CENTRAL	MARAGUA	KIGUMO	KINYONA	KINYONA	1:50000 MAPS	4	MISS	-0.748188	36.827	{EF3E3B41-7428-440B-859B-D13BA23C425D}
37.4081	0.106337	352	6	EX-LEWA DISP	3215	EASTERN	CENTRAL MERU	TIMAU	KISIMA	BUURI	DSA/DFH(MOH)-UNFPA REPORT	4	MOH	0.106337	37.4081	{A415793E-3FFF-4EFE-AF9D-960A62DE973C}
36.84123	-0.651234	353	53	WANJERERE DISP	374	CENTRAL	MURANGA	MATHIOYA	RWATHIA	WANJERERE	1:50000 MAPS	4	MOH	-0.651234	36.84123	{DB123DFD-A199-4C21-9926-A40C52A13843}
37.7684	-0.007638	354	8	GAITU PCEA DISP	2519	EASTERN	CENTRAL MERU	ABOTHUGUCHI EAST	NDURUMA	GAITU	DSA/DFH(MOH)-UNFPA REPORT	4	MISS	-0.007638	37.7684	{C13A4C79-B599-412F-9277-992DDFD0AE31}
37.18661	-0.89406	355	17	MAKUYU HEALTH CENTRE	384	CENTRAL	MARAGUA	MAKUYU	MAKUYU	MAKUYU	GPS	3	MOH	-0.89406	37.18661	{0B8146E6-80E5-4A19-B143-79CC7D27865B}
36.97671	-0.71253	356	54	WEITHAGA DISP	3396	CENTRAL	MURANGA	KAHURO	WEITHAGA	KAHUTI	GPS	4	MISS	-0.71253	36.97671	{7D22659E-0D45-467C-80F5-ED3FBF8A17DE}
37.6595	0.044284	357	9	GAKOROMONE DISP	2382	EASTERN	CENTRAL MERU	MIRIGA MIERU WEST	MUNICIPALITY	GAKOROMONE	DSA/DFH(MOH)-UNFPA REPORT	4	MOH	0.044284	37.6595	{39935AA9-701D-4E18-9786-3557BF639FFD}
37.12663	-0.78693	358	18	MARAGUA DISTRICT HOSPITAL (RHTC)	395	CENTRAL	MARAGUA	MARAGUA	NGINDA	GAKOIGO	GPS	1	MOH	-0.78693	37.12663	{BA3B689D-B100-4F8B-9504-1C6887D26220}
36.627174	-0.767321	359	64	AIC MUKEU DISP	0	CENTRAL	NYANDARUA	SOUTH KINANGOP	NYAKIO	MUKEU(NYANDA)	SUBLOC CENTROID	4	MISS	-0.767321	36.627174	{D347FEAC-1C7B-47F0-A2CF-CB8111D7899E}
37.6158	-0.088055	360	10	GANGARA PCEA DISP	2521	EASTERN	CENTRAL MERU	ABOGETA	IGOKI	UPPER CHURE	DSA/DFH(MOH)-UNFPA REPORT	4	MISS	-0.088055	37.6158	{B6AA3068-33B2-4863-8A76-4587C0FBAF2D}
36.4433	-0.002742	361	1	BAARI DISP	166	CENTRAL	NYANDARUA	NDARAGWA	LESHAU	KARAGOINI	DDP	4	MOH	-0.002742	36.4433	{7FD3DBEA-A056-4797-BA42-1179DF94FF74}
37.2	-0.77	362	19	MARAGUA RIDGE HEALTH CENTRE	348	CENTRAL	MARAGUA	MARAGUA	MARAGUA RIDGE	MARAGUA RIDGE	ILRI VILLAGES	3	MOH	-0.77	37.2	{6DE806EB-9838-46DC-A479-D137460818EE}
36.5714	-0.833952	363	2	BAMBOO DISP	3940	CENTRAL	NYANDARUA	SOUTH KINANGOP	MAGUMU	MATURA(S. KINANGOP)	DDP	4	MOH	-0.833952	36.5714	{C97684AD-02F1-4E60-8D58-078FB3134768}
37.209983	-0.803599	364	20	MARANJAU GK PRISON DISP	361	CENTRAL	MARAGUA	MAKUYU	KAMBITI	MARANJAU	DHMT	4	MOH	-0.803599	37.209983	{D8B473DB-F0E0-47F1-87ED-0B2F1B615B9C}
36.5919	-0.610526	365	3	ENGINEER HEALTH CENTRE	398	CENTRAL	NYANDARUA	NORTH KINANGOP	ENGINEER	GATHARA	DDP	3	MOH	-0.610526	36.5919	{8B152725-86E4-4836-A09C-AD5678F1BFDD}
36.9348	-0.79846	366	21	MARIRA DISP	350	CENTRAL	MARAGUA	KIGUMO	KANGARI	MARIIRA	1:50000 MAPS	4	MISS	-0.79846	36.9348	{512F1AE8-4AB7-4F69-B6C8-43AAFEBD634D}
36.5604	-0.35786	367	4	GETA BUSH DISP	399	CENTRAL	NYANDARUA	KIPIPIRI	WANJOHI	WANJOHI	DDP	4	MOH	-0.35786	36.5604	{7354437C-05A2-4818-B8E3-3EBB4B764C82}
37.0772	-0.84768	368	23	MUGUMOINI DISP	358	CENTRAL	MARAGUA	MARAGUA	KAHUMBU	MUGUMOINI(MARAG)	GPS	4	MOH	-0.84768	37.0772	{2E73466D-1EBB-4CE5-9992-B145E2C493C6}
36.628	-0.486639	369	5	GETA FOREST DISP	400	CENTRAL	NYANDARUA	NORTH KINANGOP	NORTH KINANGOP	NANDARASI	DDP	4	MOH	-0.486639	36.628	{CEE4C717-6B96-46FB-896B-08F059D639EB}
37.05976	-0.92799	370	25	MURUKA DISP	3414	CENTRAL	MARAGUA	KANDARA	MURUKA	MURUKA	GPS	4	MOH	-0.92799	37.05976	{214F6CBF-BC2F-4BCD-A6AB-1F6A9DDA5DB5}
36.5669	-0.801432	371	6	HENI DISP	402	CENTRAL	NYANDARUA	SOUTH KINANGOP	MAGUMU	KARATI(NYANDARUA)	DDP	4	MOH	-0.801432	36.5669	{F899ACA0-267C-46A4-A10C-7A47C6E835CA}
36.951802	-0.817568	372	26	MUTHERU DISP	363	CENTRAL	MARAGUA	KANDARA	RUCHU	GACHARAGE(KANDARA)	1:50000 MAPS	4	MOH	-0.817568	36.951802	{3F654D4E-44D3-4B87-AD4A-790788610FAB}
36.5467	-0.030709	373	23	HOLY FAMILY CATHOLIC DISP	3603	CENTRAL	NYANDARUA	NDARAGWA	KAHUTHA	MURICHO	DDP	4	MISS	-0.030709	36.5467	{8BF665DA-7987-42DE-8DE9-60B39238399B}
37.0485	-0.810626	374	27	MUTHITHI DISP	364	CENTRAL	MARAGUA	MARAGUA	ICHAGAKI	GIKOMORA	1:50000 MAPS	4	MISS	-0.810626	37.0485	{BC0067C8-54DB-4FF9-A04F-655DAEAF3AA9}
36.4771	0.039534	375	8	KAHEMBE DISP	4506	CENTRAL	NYANDARUA	NDARAGWA	MATHINGIRA	NDIVAI	DDP	4	MOH	0.039534	36.4771	{89791E44-9316-46E6-B740-5C6FABD82121}
36.419674	-0.210357	376	0	KAIMBAGA DISP	0	CENTRAL	NYANDARUA	OL KALOU	RURII	RURII	DHMT	4	MOH	-0.210357	36.419674	{FA2CD033-2A25-499B-9010-3236DC215768}
37.044121	-0.801467	377	0	MUTHITHI DISP	0	CENTRAL	MARAGUA	MARAGUA	ICHAGAKI	GIKOMORA	DHMT	4	MOH	-0.801467	37.044121	{1246CCAD-DFF7-4D36-BC3F-DA00B3E9048F}
36.6182	-0.78127	378	9	KARANGATHA HEALTH CENTRE	427	CENTRAL	NYANDARUA	SOUTH KINANGOP	NYAKIO	KARANGATHA	DDP	3	MOH	-0.78127	36.6182	{1BF8C6D8-9E9F-472B-A445-DF493199ED2D}
36.5649	-0.882732	379	10	KENTON GITWE DISP	3281	CENTRAL	NYANDARUA	SOUTH KINANGOP	MAGUMU	GITWE(NYANDARUA)	DDP	4	MOH	-0.882732	36.5649	{4F1AE152-E0D2-4F81-AFE4-DAF8BB8DBCC8}
37.0322	-0.93433	380	28	NAARO DISP	367	CENTRAL	MARAGUA	KANDARA	MURUKA	NAARO	1:50000 MAPS	4	MOH	-0.93433	37.0322	{414BE025-C4B8-43DF-BF8F-FA66B8512E48}
36.569856	-0.421866	381	11	KIHINGO CATHOLIC DISP	4542	CENTRAL	NYANDARUA	KIPIPIRI	GETA	MAKUMBI	ILRI MKT CENTRES	4	MISS	-0.421866	36.569856	{DEDD06AE-C7EC-4670-9694-C0C9CD818BEE}
37.0593	-0.87088	382	29	NGURUWENI DISP	368	CENTRAL	MARAGUA	KANDARA	GAICHANJIRU	NGURWE-INI	GPS	4	MOH	-0.87088	37.0593	{ABCE7F1C-271A-4ABA-AC7B-268A1865A7E3}
36.4765	-0.186805	383	12	KIRIMA DISP	403	CENTRAL	NYANDARUA	NDARAGWA	SHAMATA	KIRIMA(NYANDARUA)	DDP	4	MOH	-0.186805	36.4765	{A5B8F9D1-AFB0-42E5-97EA-ED530163634B}
36.421123	-0.092321	384	13	LESHAU PONDO HEALTH CENTRE	428	CENTRAL	NYANDARUA	OL JORO OROK	WERU	GATUMBIRO(NYAND)	1:50000 MAPS	3	MOH	-0.092321	36.421123	{2623BD8F-6B6C-4B31-B467-831EB77B9A92}
36.3269	-0.144529	385	15	MAINA & MWANGI HEALTH CENTRE	429	CENTRAL	NYANDARUA	OL JORO OROK	OL JORO OROK	NYAIROKO	DDP	3	MOH	-0.144529	36.3269	{BA46507C-17D6-4542-9C57-420CFFBEB21F}
37.00208	-0.89808	386	31	RUCHU DISP	372	CENTRAL	MARAGUA	KANDARA	ITHIRU	KIIRI	GPS	4	MISS	-0.89808	37.00208	{81C7FC62-0461-45FD-969A-A80BBFAC2495}
36.432321	0.062321	387	16	MAINA VILLAGE DISP	3211	CENTRAL	NYANDARUA	NDARAGWA	KIRIITA	SHAURI	1:50000 MAPS	4	MOH	0.062321	36.432321	{ECACD6C0-CA56-4D91-8439-D91051D5F751}
37.15	-0.87	388	32	SABASABA (CATHOLIC ) DISP	3641	CENTRAL	MARAGUA	MAKUYU	KAMAHUHA	SABA SABA	ILRI VILLAGES	4	MISS	-0.87	37.15	{42AA4E9C-4176-4E96-8564-E56A58DC73B3}
36.4953	-0.35786	389	17	MANUNGA DISP	404	CENTRAL	NYANDARUA	KIPIPIRI	WANJOHI	WANJOHI	DDP	4	MOH	-0.35786	36.4953	{2A66F177-151D-49C9-B949-9E641DBED77F}
36.3223	-0.34225	390	18	MAWINGU DISP	0	CENTRAL	NYANDARUA	OL KALOU	OL KALOU	MAWINGO(NYANDA)	DDP	4	MOH	-0.34225	36.3223	{409F2BEC-9D14-4BBF-A790-219CA8F65D20}
37.1361	-0.87501	391	33	SABASABA SUB HEALTH CENTRE	373	CENTRAL	MARAGUA	MARAGUA	KAHUMBU	KANDANI	GPS	3	MOH	-0.87501	37.1361	{5B4321C1-C086-4390-A5DA-78D03BCD9617}
36.254	-0.206317	392	19	MIRANGINE HEALTH CENTRE	431	CENTRAL	NYANDARUA	OL KALOU	NDUNDORI	MELANGINE	DDP	3	MOH	-0.206317	36.254	{705211A8-07F9-4445-8294-C617DE5E54FE}
36.892918	-0.776771	393	0	TATA HANAH DISP	0	CENTRAL	MARAGUA	KIGUMO	KINYONA	KINYONA	DHMT	4	MISS	-0.776771	36.892918	{58719A8D-F5F5-4CA6-B35F-58E0A43B7A10}
36.4882	-0.605662	394	21	MURUNGARU DISP	405	CENTRAL	NYANDARUA	NORTH KINANGOP	ENGINEER	MURUNGARU	DDP	4	MOH	-0.605662	36.4882	{B84BCA14-8E33-4CA7-A9C2-453854129006}
36.8478	-0.61184	395	1	GACHARAGENI DISP	305	CENTRAL	MURANGA	MATHIOYA	NJUMBI	KIAMUTURI	DDP	4	MOH	-0.61184	36.8478	{57F703FF-6CAF-4C51-841D-4E837C87B05A}
36.6279	-0.565601	396	22	MUTARAKWA DISP	406	CENTRAL	NYANDARUA	NORTH KINANGOP	NORTH KINANGOP	KINJA	DDP	4	MOH	-0.565601	36.6279	{B9B70594-EB85-4804-8D0C-9B5567AE88E7}
37.0161	-0.627688	397	2	GAKURWE DISP	306	CENTRAL	MURANGA	KIHARU	GATURI	GATHUKIINI	1:50000 MAPS	4	MOH	-0.627688	37.0161	{153770FA-9F0B-401B-8EFA-AC9131BE59AA}
36.61817	-0.525748	398	0	NANDARASI DISP	0	CENTRAL	NYANDARUA	NORTH KINANGOP	NORTH KINANGOP	KITIRI	DHMT	4	MOH	-0.525748	36.61817	{333955DA-A464-4651-9734-D25474249EFD}
36.93	-0.7	399	4	GATANGARA DISP	309	CENTRAL	MURANGA	KANGEMA	KANYENYAINI	KIBUTHA	DHMT	4	MOH	-0.7	36.93	{FF1B62AB-29C9-4615-9CA8-70C2DB73E671}
36.5441	-0.040465	400	24	NDARAGWA HEALTH CENTRE	407	CENTRAL	NYANDARUA	NDARAGWA	KAHUTHA	MURICHO	DDP	3	MOH	-0.040465	36.5441	{C3C9D305-8E75-4254-9F04-F7B96CADF51C}
36.86	-0.72	401	5	GATARA DISP	352	CENTRAL	MURANGA	KANGEMA	KIRURI	ICHICHI	DHMT	4	MOH	-0.72	36.86	{B0B113DE-90C5-481B-B51F-FBBEFF909AC6}
36.4413	-0.338998	402	25	NDEMI DISP	408	CENTRAL	NYANDARUA	KIPIPIRI	MALEWA	NDEMI	DDP	4	MOH	-0.338998	36.4413	{64F1F719-8580-4D28-BF53-C437383FEE43}
36.8923	-0.740291	403	6	GATHAITHI DISP	311	CENTRAL	MURANGA	KAHURO	MURARANDIA	GATHAITHI(MURANGA)	DDP	4	MOH	-0.740291	36.8923	{B3782AC2-C667-4F76-BA30-E2B5FC22C6EA}
36.332321	-0.312321	404	28	NEW MAWINGO DISP	409	CENTRAL	NYANDARUA	OL KALOU	OL KALOU	MAWINGO(NYANDA)	1:50000 MAPS	4	MOH	-0.312321	36.332321	{D2D3737B-6301-42EF-A0AC-1FEBCF94A144}
37.0632	-0.728944	405	8	GATHERU DISP	312	CENTRAL	MURANGA	KAHURO	KAHUHIA	GATHERU	1:50000 MAPS	4	MOH	-0.728944	37.0632	{28418DBA-CA98-4CE6-BC38-513DC2FBA5C9}
36.292321	-0.342321	406	29	NEW TUMAINI DISP	0	CENTRAL	NYANDARUA	OL KALOU	TUMAINI	KANJUIRI	1:50000 MAPS	4	MOH	-0.342321	36.292321	{5050DB4C-5A98-4370-9EEA-FE332238A013}
37.10059	-0.64613	407	10	GATURI DISP	313	CENTRAL	MURANGA	KIHARU	GATURI	GEITWA/MUGEKA	GPS	4	MISS	-0.64613	37.10059	{F1B7138C-9326-4148-9E45-855EF9A8416A}
36.2833	-0.095749	408	30	NGANO H C	410	CENTRAL	NYANDARUA	OL JORO OROK	GATANJE	NGANO	DDP	3	MOH	-0.095749	36.2833	{8B4BA0FC-3909-4C03-B913-E3348E025F8E}
37.014	-0.676591	409	11	GIKUI DISP	316	CENTRAL	MURANGA	KANGEMA	IYEGO	GIKUI(MURANGA)	1:50000 MAPS	4	MOH	-0.676591	37.014	{CB523E5B-64EA-404A-86F7-FB89B6F4E1C8}
36.23	-0.313633	410	31	NGORIKA DISP	412	CENTRAL	NYANDARUA	OL KALOU	NGORIKA	NGORIKA	DDP	4	MOH	-0.313633	36.23	{7438776F-093A-469B-9704-9D3AB8851D73}
37.07393	-0.74295	411	12	GITARO DISP	317	CENTRAL	MURANGA	KAHURO	MUGOIRI	GATUNDU(MURANGA)	GPS	4	MOH	-0.74295	37.07393	{01E93273-F5F6-4B10-B4D7-D71DB3706BE7}
36.669	-0.734441	412	32	NJABINI CATHOLIC DISP	413	CENTRAL	NYANDARUA	SOUTH KINANGOP	NJABINI	KIBURU	DDP	4	MISS	-0.734441	36.669	{80A07394-A8E9-420F-8C6D-C6BB644E3B8C}
37.1018	-0.62973	413	14	GITHANGA DISP	4318	CENTRAL	MURANGA	KIHARU	GATURI	GEITWA/MUGEKA	1:50000 MAPS	4	MISS	-0.62973	37.1018	{57E61F75-5826-489F-9759-7AAA82A14443}
36.6657	-0.721433	414	33	NJABINI HEALTH CENTRE	432	CENTRAL	NYANDARUA	SOUTH KINANGOP	NJABINI	KIBURU	DDP	3	MOH	-0.721433	36.6657	{9A2A98A7-CE4B-4193-907F-71404A4EF00F}
36.5833	-0.5992	415	34	NORTH KINANGOP CATHOLIC HOSPITAL	436	CENTRAL	NYANDARUA	NORTH KINANGOP	ENGINEER	GATHARA	HD MAPS	1	MISS	-0.5992	36.5833	{C1474DA4-F1FF-4860-8EAE-7664471E2AD1}
37.0255	-0.655967	416	16	GITUGI DISP	319	CENTRAL	MURANGA	MATHIOYA	GITUGI	GITUGI(MURANGA)	1:50000 MAPS	4	MOH	-0.655967	37.0255	{3182E60B-2584-4C61-BFD7-F1CEA74147DB}
36.359734	0.013654	417	36	NYAHURURU CATHOLIC MISSION DISP	397	CENTRAL	NYANDARUA	OL JORO OROK	GATIMU	GIKINGI	ILRI MKT CENTRES	4	MISS	0.013654	36.359734	{9FE113E8-D98C-4854-A789-CE50E200DA2D}
36.8387	-0.704469	418	17	ICHICHI DISP	322	CENTRAL	MURANGA	KANGEMA	KIRURI	ICHICHI	DDP	4	MOH	-0.704469	36.8387	{107716CD-143A-4610-BA57-C7310AE0B01C}
36.3418	0.023274	419	37	NYAHURURU DISTRICT HOSPITAL	437	CENTRAL	NYANDARUA	OL JORO OROK	GATIMU	GIKINGI	DDP	1	MOH	0.023274	36.3418	{F8F44C46-7E40-46BB-A4C3-22770B2637C7}
37.028378	-0.596847	420	18	IRURI DISP	323	CENTRAL	MURANGA	MATHIOYA	KAMACHARIA	THUITA(MURANGA)	1:50000 MAPS	4	MOH	-0.596847	37.028378	{231A5326-8CBE-4ED3-8E42-C22E432D752C}
36.269	-0.283714	421	38	NYS TUMAINI DISP	3361	CENTRAL	NYANDARUA	OL KALOU	TUMAINI	KANJUIRI	DDP	4	MOH	-0.283714	36.269	{F2F356C2-5B15-42FA-B3B7-AB44EF6AE246}
36.9821	-0.620072	422	19	KAGUMOINI DISP	325	CENTRAL	MURANGA	MATHIOYA	KIRU	KAGUMOINI(MURANGA)	1:50000 MAPS	4	MOH	-0.620072	36.9821	{039CB925-7ACE-4730-A6D0-D34E12EAF803}
36.3535	-0.099001	423	39	OL JORO OROK CATHOLIC DISP	3634	CENTRAL	NYANDARUA	OL JORO OROK	OL JORO OROK	LESIRKO	DDP	4	MISS	-0.099001	36.3535	{56CAF7B5-E89C-4B31-8ED2-23A2F13D93D6}
37.04	-0.71	424	0	KAHUHIA ACK DISP	0	CENTRAL	MURANGA	KAHURO	KAHUHIA	KIROGO	DHMT	4	MISS	-0.71	37.04	{E34111D0-A0C0-4883-AAF8-2FA103D7DD0A}
36.3483	-0.046969	425	40	OL'BOROSAT DISP	414	CENTRAL	NYANDARUA	OL JORO OROK	GATANJE	GATHANJE	DDP	4	MOH	-0.046969	36.3483	{F6D9A54D-90AD-4151-A74C-26DB144E7155}
36.8629	-0.610663	426	21	KAIRO DISP	327	CENTRAL	MURANGA	MATHIOYA	KIRU	KAIRO	1:50000 MAPS	4	MOH	-0.610663	36.8629	{F49214E0-8D60-4E7A-BCF1-EB6637F6A048}
36.5213	-0.405989	427	41	OLD MAWINGO DISP	415	CENTRAL	NYANDARUA	KIPIPIRI	KIPIPIRI	MIHARATI	DDP	4	MOH	-0.405989	36.5213	{3B09A03B-5002-413B-91CE-6F41755D188D}
37.1921	-0.741239	428	22	KAMBIRWA DISP	329	CENTRAL	MURANGA	KIHARU	GIKINDU	KAMBIRWA	1:50000 MAPS	4	MOH	-0.741239	37.1921	{7A206CB0-B40F-41EA-B06D-9858753D1452}
36.3735	-0.2707	429	42	OL'KALOU DISTRICT HOSPITAL	438	CENTRAL	NYANDARUA	OL KALOU	OL KALOU	MUNYEKI	HD MAPS	1	MOH	-0.2707	36.3735	{6815573A-D5F4-46AA-BDDA-F5D4572C844F}
36.32708	-0.219369	430	68	PASSENGA CATHOLIC DISP	4546	CENTRAL	NYANDARUA	OL KALOU	RURII	PASSENGA	SUBLOC CENTROID	4	MISS	-0.219369	36.32708	{11E01586-2F24-4E2F-8789-5ACB12B4A24D}
36.97065	-0.68709	431	23	KANGEMA HEALTH CENTRE	378	CENTRAL	MURANGA	KANGEMA	MUGURU	GAKIRA	GPS	3	MOH	-0.68709	36.97065	{FF8D3B47-7677-4CD6-8DFC-6F9898FF20D4}
36.5792	-0.123716	432	43	PESI DISP	416	CENTRAL	NYANDARUA	NDARAGWA	SHAMATA	PESI(NYANDARUA)	DDP	4	MOH	-0.123716	36.5792	{B7282FBD-4C96-434B-BA84-6450209A0C80}
36.9522	-0.619082	433	24	KANJAMA DISP	2713	CENTRAL	MURANGA	MATHIOYA	KIRU	KANJAMA	1:50000 MAPS	4	MOH	-0.619082	36.9522	{CE662048-B233-4930-8BCE-0DE2A0570A79}
36.5649	-0.248593	434	44	SHAMATA DISP	417	CENTRAL	NYANDARUA	NATIONAL PARK	NATIONAL PARK	MT. KENYA N. PARK	DDP	4	MOH	-0.248593	36.5649	{81E914C7-D633-4796-AD84-5F5702EAD388}
36.8829	-0.686016	435	25	KANYENYAINI DISP	331	CENTRAL	MURANGA	KANGEMA	KANYENYAINI	KANYENYAINI	DDP	4	MOH	-0.686016	36.8829	{E606BC1D-8C11-436A-9F9D-1F546169D67A}
36.2833	-0.043717	436	45	SILIBWET DISP	418	CENTRAL	NYANDARUA	OL JORO OROK	GATANJE	SILIBWET(NYANDA)	DDP	4	MOH	-0.043717	36.2833	{A38F9BDC-8345-47AF-9155-5E10769EF8E0}
37.6506	-0.078557	437	11	GATIA PCEA DISP	396	EASTERN	CENTRAL MERU	NKUENE	MIKUMBUNE	KIGANE	DSA/DFH(MOH)-UNFPA REPORT	4	MISS	-0.078557	37.6506	{55BCC980-4AC2-4E9D-BA3B-0B15EF302488}
37.12342	-0.751234	438	26	KARAHA DISP	4594	CENTRAL	MURANGA	KIHARU	MBIRI	MUCHUNGUCHA	DISTRICT ESTIMATES	4	MISS	-0.751234	37.12342	{44549ACA-1C14-4735-BBDF-5A64F6DA057F}
37.6417	-0.000673	439	12	GATIMBI DISP	1077	EASTERN	CENTRAL MERU	ABOTHUGUCHI CENTRAL	MARIENE	MUGAMBONE	DSA/DFH(MOH)-UNFPA REPORT	4	MOH	-0.000673	37.6417	{7D9734D5-5B9C-492F-93F9-F3CD2550009D}
36.250195	-0.217278	440	20	ST MATTHEWS AND SARAH CATHOLIC DISP	4356	CENTRAL	NYANDARUA	OL KALOU	NDUNDORI	MELANGINE	SUBLOC CENTROID	4	MISS	-0.217278	36.250195	{8B72052F-0FA1-4665-BF80-C4B640BC0A4E}
37.7171	-0.153908	441	13	GATUNTUNE PCEA DISP	2523	EASTERN	CENTRAL MERU	IGOJI	MWERU	MWERU(CMERU)	DSA/DFH(MOH)-UNFPA REPORT	4	MISS	-0.153908	37.7171	{BE99924D-FED1-487C-BE31-808D42DC4DF7}
37.715	-0.048	442	14	GATURI PCEA DISP	1079	EASTERN	CENTRAL MERU	ABOTHUGUCHI EAST	MWANGATHIA	IGANE	ILRI VILLAGES	4	MISS	-0.048	37.715	{EB6E11A2-27DD-4CE6-9FA8-5729227222B1}
36.239229	-0.303998	443	0	ST. MARY'S DISP	0	CENTRAL	NYANDARUA	OL KALOU	NGORIKA	NGORIKA	DHMT	4	MISS	-0.303998	36.239229	{2969090C-7401-4011-994B-9B36403C7C27}
37.7684	0.03352	444	15	GIAKI DISP	1081	EASTERN	CENTRAL MERU	MIRIGA MIERU EAST	GIAKI	KAMBEREU	DSA/DFH(MOH)-UNFPA REPORT	4	MOH	0.03352	37.7684	{544EC284-2BF9-42A1-8EFE-A19EE9174E87}
37.0636	-0.697581	445	27	KIAMARA DISP	334	CENTRAL	MURANGA	KANGEMA	IYEGO	GACHARAIGU	1:50000 MAPS	4	MOH	-0.697581	37.0636	{D8B57588-B12F-4621-85F2-56912CD198E1}
36.4621	-0.0977	446	48	SUBUKU DISP	420	CENTRAL	NYANDARUA	NDARAGWA	KANYAGIA	KANYAGIA	DDP	4	MOH	-0.0977	36.4621	{3A7D664D-1C06-49A7-A474-5A99799969D9}
37.6215	-0.005739	447	16	GITHONGO SUB DISTRICT HOSPITAL	1167	EASTERN	CENTRAL MERU	ABOTHUGUCHI WEST	GITHONGO EAST	KARUGWA	DSA/DFH(MOH)-UNFPA REPORT	1	MOH	-0.005739	37.6215	{D2364BAE-2F4E-4DA7-86D7-5BEA63C0D455}
37.118469	-0.760811	448	28	KIANGOCHI DISP	335	CENTRAL	MURANGA	KIHARU	MBIRI	MUCHUNGUCHA	1:50000 MAPS	4	MOH	-0.760811	37.118469	{41CB5703-367D-4217-AD96-5B1014D1356D}
37.612	0.06518	449	17	GITORO (CONSOLATA) DISP	3083	EASTERN	CENTRAL MERU	FOREST	IMENTI FOREST	IMENTI FOREST	DSA/DFH(MOH)-UNFPA REPORT	4	MISS	0.06518	37.612	{857C48A2-AD55-4DD8-9CAB-171EA37EDF1B}
36.2638	-0.271357	450	49	TUMAINI DISP	423	CENTRAL	NYANDARUA	OL KALOU	TUMAINI	KANJUIRI	DDP	4	MOH	-0.271357	36.2638	{B316332C-94C0-47B5-B586-1601CE9562DF}
37.6132	-0.115971	451	5	IGADENE MISSION DISP	2654	EASTERN	CENTRAL MERU	ABOGETA	ABOGETA	UPPER KIUNGONE	DSA/DFH(MOH)-UNFPA REPORT	4	MISS	-0.115971	37.6132	{35A04EAB-E070-4BF8-89B9-6B6B75B553C9}
36.98927	-0.69231	452	29	KIANGUNYI MISSION DISP	336	CENTRAL	MURANGA	KANGEMA	MUGURU	WATUHA	GPS	4	MISS	-0.69231	36.98927	{D02A9722-9BB0-40C0-9F54-9EE758AE4B04}
37.6652	-0.193799	453	19	IGOJI MISSION HOSPITAL	1184	EASTERN	CENTRAL MERU	IGOJI	IGOJI	KUIRI	DSA/DFH(MOH)-UNFPA REPORT	1	MISS	-0.193799	37.6652	{BF570879-DD8B-4055-983C-4B3E331526AB}
36.4426	-0.447615	454	50	TURASHA DISP	424	CENTRAL	NYANDARUA	KIPIPIRI	LERESHWA	KIRIKO(NYANDARUA)	DDP	4	MOH	-0.447615	36.4426	{C70A9BC6-1B55-4D6D-B11C-DE12B486FC05}
36.91892	-0.698198	455	30	KIBUTHA DISP	337	CENTRAL	MURANGA	KANGEMA	KANYENYAINI	KIBUTHA	1:50000 MAPS	4	MOH	-0.698198	36.91892	{6C2F4C3B-E869-4003-9D2E-3D68C69CB466}
37.68	-0.2	456	20	IRUMA CATHOLIC DISP	2396	EASTERN	CENTRAL MERU	IGOJI	IGOJI	GIKUI(CMERU)	ILRI VILLAGES	4	MISS	-0.2	37.68	{B3676512-23E5-4285-BD80-5A74BF4537FE}
36.5779	0.03238	457	51	URUKU DISP	425	CENTRAL	NYANDARUA	NDARAGWA	KAHUTHA	URUKU(NYANDARUA)	DDP	4	MOH	0.03238	36.5779	{FE97884D-7BC9-4230-900D-593D8C499BFA}
37.5746	-0.079823	458	21	ITHIMBARI DISP	2525	EASTERN	CENTRAL MERU	ABOGETA	IGOKI	UPPER CHURE	DSA/DFH(MOH)-UNFPA REPORT	4	MOH	-0.079823	37.5746	{B54C4DF0-57F2-4147-9A63-1C82292ACC15}
37.162341	-0.673212	459	31	KIGETUINI DISP	338	CENTRAL	MURANGA	KIHARU	GATURI	KIMATHI(MURANGA)	1:50000 MAPS	4	MOH	-0.673212	37.162341	{6A3DD637-72F0-46E9-8B4D-AD90E141AB3B}
36.5122	-0.307129	460	52	WANJOHI HEALTH CENTRE	434	CENTRAL	NYANDARUA	KIPIPIRI	WANJOHI	GATONDO	DDP	3	MOH	-0.307129	36.5122	{C6373B25-21D2-4A50-9E39-A32F991FF35C}
37.65	0.06	461	82	KAMBAKIA CHRISTIAN CENTRE DISP	3553	EASTERN	CENTRAL MERU	MIRIGA MIERU WEST	MUNICIPALITY	KAAGA2	SUBLOC CENTROID	4	NGO	0.06	37.65	{A2F7E01E-FD8C-45C6-B6EB-21F4D11BA69F}
37.6702	-0.120981	462	22	KANYAKINE HEALTH CENTRE	1098	EASTERN	CENTRAL MERU	ABOGETA	KITHANGARI	NTHARENE	DSA/DFH(MOH)-UNFPA REPORT	3	MOH	-0.120981	37.6702	{40F22074-C056-4376-8A79-0EAF3104FD3F}
36.88874	-0.648649	463	32	KIHOYA DISP	340	CENTRAL	MURANGA	MATHIOYA	RWATHIA	KIHOYA	1:50000 MAPS	4	MOH	-0.648649	36.88874	{DBA4D63D-526A-40FF-B49F-DB610BCBDF4F}
37.7038	-0.032333	464	23	KAONGO DISP	1099	EASTERN	CENTRAL MERU	ABOTHUGUCHI EAST	NDURUMA	KAONGO	DSA/DFH(MOH)-UNFPA REPORT	4	MOH	-0.032333	37.7038	{6B304A7E-4C9B-4F7A-BF9B-2FF663E841CD}
36.5747	-0.681759	465	53	WERU DISP	426	CENTRAL	NYANDARUA	SOUTH KINANGOP	NJABINI	MURUAKI	DDP	4	MOH	-0.681759	36.5747	{3C683E7E-2A9F-41EA-859F-4FEE2B786EA1}
37.6284	-0.203297	466	25	KARIA PCEA DISP	1101	EASTERN	CENTRAL MERU	IGOJI	KARIA	KARIA(CMERU)	DSA/DFH(MOH)-UNFPA REPORT	4	MISS	-0.203297	37.6284	{040754EE-440F-4419-B439-6A7AEAA13DF8}
36.97	-0.61	467	0	KIHURO ACK DISP	0	CENTRAL	MURANGA	MATHIOYA	KIRU	KAGUMOINI(MURANGA)	DHMT	4	MISS	-0.61	36.97	{7DCDC674-F0F7-44EF-A8DA-5A2628B6F9E3}
37.5879	-0.054495	468	26	KATHERA PCEA DISP	1105	EASTERN	CENTRAL MERU	NKUENE	NKUENE	KATHERA(CMERU)	DSA/DFH(MOH)-UNFPA REPORT	4	MISS	-0.054495	37.5879	{E11FF9C7-1722-457D-963A-44B117494212}
37.020721	-0.501352	469	1	AGUTHI DISP	440	CENTRAL	NYERI	TETU	AGUTHI	GITITU	1:50000 MAPS	4	MOH	-0.501352	37.020721	{BE81FEBA-DF7F-45C9-B398-BAE18497FFBF}
37.0672	-0.767812	470	34	KIRIA DISP	344	CENTRAL	MURANGA	KAHURO	MUGOIRI	KIRIA(MURANGA)	1:50000 MAPS	4	MOH	-0.767812	37.0672	{0FDAF492-2BCC-422C-B2E0-FAF49647B5DD}
37.6873	-0.155807	471	27	KATHIGU PCEA DISP	1106	EASTERN	CENTRAL MERU	IGOJI	KIANJOGU	MIRURIIRI	DSA/DFH(MOH)-UNFPA REPORT	4	MISS	-0.155807	37.6873	{F646F2BC-7058-4657-B5FD-F5CDF59586AC}
36.874537	-0.331019	472	2	AMBONI DISP	441	CENTRAL	NYERI	KIENI WEST	MWEIGA	AMBONI	1:50000 MAPS	4	MOH	-0.331019	36.874537	{B40B4F70-C7C7-4CE3-82F8-9ACB0CC51899}
36.781122	-0.221133	473	3	BELLEVUE SUB HEALTH CENTRE	442	CENTRAL	NYERI	KIENI WEST	GATARAKWA	KAMARIKI	1:50000 MAPS	4	MOH	-0.221133	36.781122	{7E0B370F-5F62-462E-B415-E1726026A765}
37.7025	0.069612	474	28	KATHITHI DISP	1107	EASTERN	CENTRAL MERU	MIRIGA MIERU EAST	MUNITHU	KIRIMENE	DSA/DFH(MOH)-UNFPA REPORT	4	MOH	0.069612	37.7025	{08DB1AE8-D04F-48F6-9BAB-9D2E5FBF708A}
36.95155	-0.59941	475	35	KIRIAINI DISP	345	CENTRAL	MURANGA	MATHIOYA	KIRU	KIRIAINI(MURANGA)	GPS	4	MOH	-0.59941	36.95155	{0F7487B4-DA4E-47A8-A381-146F82AC6DC2}
37.52	0.1	476	29	KIBIRICHIA DISP	0	EASTERN	CENTRAL MERU	ABOTHUGUCHI WEST	KIAMIOGO	MBURUGITI	ILRI VILLAGES	4	MISS	0.1	37.52	{657157FE-8A0E-4C5C-9ABC-84C4E2DA454E}
37	-0.111224	477	4	BURGURET DISP	0	CENTRAL	NYERI	KIENI EAST	GAKAWA	GITHIMA(NYERI)	1:50000 MAPS	4	MOH	-0.111224	37	{143A7DAB-8C86-4DA4-920A-2933B6F81BFA}
37.5037	0.125967	478	30	KIBIRICHIA HEALTH CENTRE	1112	EASTERN	CENTRAL MERU	ABOTHUGUCHI WEST	KIAMIOGO	KIAMIOGO	DSA/DFH(MOH)-UNFPA REPORT	3	MOH	0.125967	37.5037	{060379C1-165C-4CD4-8643-41A03E4E1B6B}
36.9482	-0.597467	479	36	KIRIAINI MISS. HOSPITAL	2379	CENTRAL	MURANGA	MATHIOYA	KIRU	KIRIAINI(MURANGA)	DDP	1	MISS	-0.597467	36.9482	{745F9ED1-0E6A-41F2-88F1-A25C5986DC4D}
37.8887	-0.001939	480	31	KIBURINE DISP	3441	EASTERN	CENTRAL MERU	MIRIGA MIERU EAST	KIBURINE	MBIRIKENE	DSA/DFH(MOH)-UNFPA REPORT	4	MOH	-0.001939	37.8887	{53AAEF0D-284A-421C-9CEF-414308DC8334}
37.173874	-0.440991	481	5	CHEHE DISP	444	CENTRAL	NYERI	MATHIRA	IRIA-INI	CHEHE	1:50000 MAPS	4	MOH	-0.440991	37.173874	{EB038BD1-77D6-4105-9480-93747EE73D4C}
37.02947	-0.71178	482	37	KIROGO HEALTH CENTRE	381	CENTRAL	MURANGA	KAHURO	KAHUHIA	KIROGO	GPS	3	MOH	-0.71178	37.02947	{27FEB500-38E3-4675-95E7-88C5DF9EB142}
37.6126	-0.176703	483	32	KINORO DISP	3217	EASTERN	CENTRAL MERU	IGOJI	KINORO	KINORO	DSA/DFH(MOH)-UNFPA REPORT	4	MOH	-0.176703	37.6126	{81BB5515-9B13-403D-930F-76C546FC44AF}
36.91898	-0.41129	484	6	CONSOLATA HOSPITAL MATHARI	496	CENTRAL	NYERI	MUNICIPALITY	MUKARO	MATHARI	GPS	1	MISS	-0.41129	36.91898	{5C517770-45D8-4C3A-8CC0-81CF03BA49A5}
37.5841	-0.124147	485	33	KIONYO DISP	1122	EASTERN	CENTRAL MERU	ABOGETA	ABOGETA	UPPER KIUNGONE	DSA/DFH(MOH)-UNFPA REPORT	4	MOH	-0.124147	37.5841	{572EC8D8-3E7C-4B63-B3A4-F618BB952477}
36.96	-0.66	486	0	MIHUTI DISP	0	CENTRAL	MURANGA	MATHIOYA	GITUGI	MIHUTI(MURANGA)	DHMT	4	MISS	-0.66	36.96	{334E07AD-DD2F-4DC3-9FA2-C80F40F6088C}
37.6822	-0.094387	487	35	KIRONGINE PCEA DISP	1124	EASTERN	CENTRAL MERU	ABOGETA	IGOKI	KOTHINE	DSA/DFH(MOH)-UNFPA REPORT	4	MISS	-0.094387	37.6822	{8FA2F432-8A99-40A5-B4C0-960D176C0DAF}
36.682213	-0.281144	488	7	EMBARINGO DISP	3159	CENTRAL	NYERI	KIENI WEST	GATARAKWA	EMBARINGO	1:50000 MAPS	4	MOH	-0.281144	36.682213	{979E052C-4D57-4A6E-990A-4DC40A954547}
37.5638	0.130399	489	37	KIRUA COTTAGE HOSPITAL	2399	EASTERN	CENTRAL MERU	BUURI	KIIRUA	KIIRUA	DSA/DFH(MOH)-UNFPA REPORT	1	MISS	0.130399	37.5638	{ED6A6E48-68BF-492A-AF0D-D4A12A7C08A4}
36.7948	-0.307348	490	8	ENDARASHA HEALTH CENTRE	509	CENTRAL	NYERI	KIENI WEST	ENDARASHA	ENDARASHA	1:50000 MAPS	3	MOH	-0.307348	36.7948	{7916FE5F-C9AA-4026-AA55-EB87CC96DFC5}
37.09145	-0.63969	491	42	MUGEKA HEALTH CENTRE	354	CENTRAL	MURANGA	KIHARU	GATURI	GEITWA/MUGEKA	GPS	3	MOH	-0.63969	37.09145	{CBC1FA0E-0F6A-4CC0-90CA-D543DB196D0A}
37.5607	0.143063	492	38	KIRUA DISP	1117	EASTERN	CENTRAL MERU	BUURI	KIIRUA	KIIRUA	DSA/DFH(MOH)-UNFPA REPORT	4	MOH	0.143063	37.5607	{3CF28AD7-9A82-40A3-91B7-CF859FA01257}
37.740945	-0.144378	493	39	KITHATU CATHOLIC DISP	3555	EASTERN	CENTRAL MERU	ABOGETA	KIRINGA	KITHATU	SUBLOC CENTROID	4	MISS	-0.144378	37.740945	{C16C8C36-41F9-42A7-A091-FE302DF81AC3}
37.02561	-0.74839	494	43	MUGOIRI  MISSION DISP	356	CENTRAL	MURANGA	KAHURO	MUGOIRI	KAHURO	GPS	4	MISS	-0.74839	37.02561	{625917DE-1BB9-4386-9EBF-683B61D69225}
37.5113	0.112669	495	40	MACHAKA CATHOLIC DISP	2894	EASTERN	CENTRAL MERU	ABOTHUGUCHI WEST	KIAMIOGO	KIAMIOGO	DSA/DFH(MOH)-UNFPA REPORT	4	MISS	0.112669	37.5113	{BE7C70D5-9831-46F6-BB8A-1CA5993F9537}
37.026577	-0.429054	496	9	GACHIKA DISP	3158	CENTRAL	NYERI	MUNICIPALITY	KIGANJO	GACHIKA(NYERI)	1:50000 MAPS	4	MOH	-0.429054	37.026577	{1E147141-95B7-4F76-AC9C-1A2A40E8A8A5}
37.8216	-0.079823	497	41	MAKANDUNE PCEA DISP	1127	EASTERN	CENTRAL MERU	ABOTHUGUCHI EAST	KIAGU	MAKANDUNE	DSA/DFH(MOH)-UNFPA REPORT	4	MISS	-0.079823	37.8216	{C4E03EAD-AE65-4409-8C5B-F92FCC8AFBA0}
37.6291	0.073411	498	43	MARIE STOPES DISP	3671	EASTERN	CENTRAL MERU	FOREST	IMENTI FOREST	IMENTI FOREST	DSA/DFH(MOH)-UNFPA REPORT	4	NGO	0.073411	37.6291	{9D6368A4-865F-470F-87AF-4EC688EEDA10}
37.15985	-0.71587	499	45	MURANGA DISTRICT HOSPITAL	393	CENTRAL	MURANGA	KIHARU	TOWNSHIP	KARURI(MURANGA)	GPS	1	MOH	-0.71587	37.15985	{A8068D92-C300-4C35-91C8-765455384ECB}
37.08	-0.041123	500	10	GAKAWA DISP	3364	CENTRAL	NYERI	KIENI EAST	GAKAWA	KAHURURA	1:50000 MAPS	4	MOH	-0.041123	37.08	{66E538C3-DAF9-4138-A286-9C7B1958D8DA}
37.6641	0.060928	501	46	MERU DISTRICT HOSPITAL	1181	EASTERN	CENTRAL MERU	MIRIGA MIERU WEST	MUNICIPALITY	KAAGA2	HD MAPS	1	MOH	0.060928	37.6641	{298EB22A-923B-464E-B4CD-A3098A48BA37}
37.62112	0.225676	502	48	MINUGU DISP	1138	EASTERN	CENTRAL MERU	BUURI	RWARERA	KIRWIRO	1:50000 MAPS	4	MISS	0.225676	37.62112	{EE97DEBC-70B8-4A50-8EA3-8463D06D91FD}
37.148198	-0.399909	503	11	GATEI DISP	445	CENTRAL	NYERI	MATHIRA	MAGUTU	GATEI(NYERI)	1:50000 MAPS	4	MOH	-0.399909	37.148198	{98FFD12D-5DBA-4C3A-8421-23427B5B8C80}
37.779276	-0.101802	504	49	MITUNGUU DISP	3790	EASTERN	CENTRAL MERU	NKUENE	MITUNGUU	KIRINDENE	1:50000 MAPS	4	MISS	-0.101802	37.779276	{21126AF4-FE04-4B14-B620-CDF7F8F54E2A}
37.031124	-0.07432	505	12	GATHIURU DISP	446	CENTRAL	NYERI	KIENI EAST	GAKAWA	GATHIURU	1:50000 MAPS	4	MOH	-0.07432	37.031124	{7257678F-C254-42EB-AFD3-28A7883A9E32}
37.6006	-0.072225	506	50	MKUMBUNE SUB DISTRICT HOSPITAL	1137	EASTERN	CENTRAL MERU	NKUENE	MIKUMBUNE	MIKUMBUNE	DSA/DFH(MOH)-UNFPA REPORT	3	MOH	-0.072225	37.6006	{69393A1D-43BD-44E2-98C1-94E17CC0B241}
37.6987	-0.060827	507	53	MUJWA CATHOLIC DISP	1142	EASTERN	CENTRAL MERU	ABOTHUGUCHI EAST	MWANGATHIA	GATUUNE	DSA/DFH(MOH)-UNFPA REPORT	4	MISS	-0.060827	37.6987	{632DD38B-718F-44F7-855B-609E7129375C}
36.90123	-0.48214	508	13	GATHUTHI DISP	3809	CENTRAL	NYERI	TETU	THEGENGE	GATHUTHI	DISTRICT ESTIMATES	4	MISS	-0.48214	36.90123	{AD2D7CE5-EEAB-4C19-9639-E8E17B70500D}
37.7095	-0.160873	509	56	MWOROGA MISSION DISP	1150	EASTERN	CENTRAL MERU	IGOJI	MWERU	MWERU(CMERU)	DSA/DFH(MOH)-UNFPA REPORT	4	MISS	-0.160873	37.7095	{539902D2-094E-4AFB-86AA-809779CC665A}
37.5657	0.091141	510	57	NAARI DISP	1151	EASTERN	CENTRAL MERU	BUURI	NAARI	MURUGUMA	DSA/DFH(MOH)-UNFPA REPORT	4	MOH	0.091141	37.5657	{0A60C732-2588-4F6C-BFAB-80467817DFED}
36.9919	-0.457437	511	14	GATITU DISP	447	CENTRAL	NYERI	TETU	GAAKI	MUTATHIINI	1:50000 MAPS	4	MOH	-0.457437	36.9919	{7AC5DF2E-63CD-47DD-816A-C3A60390E336}
37.16667	-0.43333	512	15	GATONDO DISP	4578	CENTRAL	NYERI	MATHIRA	IRIA-INI	KIAMWANGI	1:50000 MAPS	4	MOH	-0.43333	37.16667	{63AC627D-3FFB-464F-B6D6-E09417596746}
37.392321	0.202321	513	58	NGARENDARE DISP	2743	EASTERN	CENTRAL MERU	TIMAU	KISIMA	NGARE NDARE	1:50000 MAPS	4	MISS	0.202321	37.392321	{328B981D-28BA-4FF0-90F5-E8ED87BE9596}
36.975528	-0.532145	514	16	GIATHENGE DISP	3561	CENTRAL	NYERI	OTHAYA	KARIMA	GURA	1:50000 MAPS	4	MOH	-0.532145	36.975528	{F3AB747A-71DD-457F-BF18-07F209E96BBB}
37.6911	0.038585	515	59	NKABUNE MISSION DISP	1154	EASTERN	CENTRAL MERU	MIRIGA MIERU EAST	MULATHANKARI	NKABUNE	DSA/DFH(MOH)-UNFPA REPORT	4	MISS	0.038585	37.6911	{3A0AF630-B9EF-47E1-A9CD-21D6D8605286}
36.92429	-0.57562	516	17	GICHICHI SUB HEALTH CENTRE	489	CENTRAL	NYERI	OTHAYA	CHINGA	GICHICHE(NYERI)	GPS	3	MOH	-0.57562	36.92429	{9AAA0B04-1701-428E-98B5-213F6447EBBB}
37.702131	-0.132542	517	61	NKACII DISP	2745	EASTERN	CENTRAL MERU	ABOGETA	KIRINGA	KITHATU	1:50000 MAPS	4	MOH	-0.132542	37.702131	{0A816D70-5C08-4D95-BB09-A8C014CEA49E}
37.592321	-0.041232	518	63	NKANDO DISP	4453	EASTERN	CENTRAL MERU	NKUENE	NKUENE	URUKU(CMERU)	1:50000 MAPS	4	MOH	-0.041232	37.592321	{928E2F07-AC57-4D0C-95E4-E791ED21D8D4}
37.019369	-0.471847	519	18	GICHIRA HEALTH CENTRE	449	CENTRAL	NYERI	TETU	AGUTHI	GICHIRA	1:50000 MAPS	3	MOH	-0.471847	37.019369	{CA3B58C8-5A55-45F3-804C-284B5CA5501F}
37.663113	-0.062288	520	160	NKUBU DISP	3718	EASTERN	CENTRAL MERU	NKUENE	NKUENE	KATHERA(CMERU)	ILRI MKT CENTRES	4	MOH	-0.062288	37.663113	{04E040BD-8C86-49B2-90A0-F60CE6936F69}
37.585537	-0.177278	521	64	NKUNJUMO CATHOLIC DISP	2397	EASTERN	CENTRAL MERU	IGOJI	KARIA	NKUNJUMU	SUBLOC CENTROID	4	MISS	-0.177278	37.585537	{21BD0256-E9C5-4121-94F1-783D681E3EDF}
37.03231	-0.57123	522	19	GIKONDI DISP	490	CENTRAL	NYERI	MUKURWE-INI	GIKONDI	KIIRUNGI	DISTRICT ESTIMATES	4	MISS	-0.57123	37.03231	{29B52673-A45A-488E-8EE4-8B9144F4A537}
37.1877	-0.00004	523	68	ONTOLILI DISP	1157	EASTERN	CENTRAL MERU	FOREST	MT KENYA FOREST	MT KENYA FOREST2	DSA/DFH(MOH)-UNFPA REPORT	4	MOH	-4.00E-05	37.1877	{E50C3751-367C-473E-80DD-90C82EB0DE2F}
37.6227	0.003759	524	69	RIIJI MISSION DISP	3019	EASTERN	CENTRAL MERU	ABOTHUGUCHI WEST	KATHERI EAST	KINJO NORTH	DSA/DFH(MOH)-UNFPA REPORT	4	MISS	0.003759	37.6227	{211858A9-574C-4EA9-A4BE-B4444916C52A}
36.8629	-0.517025	525	20	GITUGI DISP	450	CENTRAL	NYERI	OTHAYA	MAHIGA	GITUGI(NYERI)	1:50000 MAPS	4	MOH	-0.517025	36.8629	{8C74094F-9128-472B-A454-28E74886DC50}
37.6481	0.174723	526	70	RUIRI CATHOLIC DISP	1158	EASTERN	CENTRAL MERU	BUURI	RUIRI	NCOROIBORO	DSA/DFH(MOH)-UNFPA REPORT	4	MISS	0.174723	37.6481	{FDF7117D-4D8C-4F3F-B230-8294B8AF4585}
37.6436	0.162059	527	71	RUIRI RHDC	1186	EASTERN	CENTRAL MERU	BUURI	RUIRI	NCOROIBORO	DSA/DFH(MOH)-UNFPA REPORT	3	MOH	0.162059	37.6436	{87B56610-D98D-4691-BBC2-F392AF0ECF2E}
37.13234	-0.39132	528	21	GITUNDUTI CATHOLIC DISP	4371	CENTRAL	NYERI	MATHIRA	MAGUTU	GITUNDUTI	DISTRICT ESTIMATES	4	MISS	-0.39132	37.13234	{B8AB8489-FA6E-4158-93DC-65AB88954F22}
37.12943	-0.47339	529	41	KARATINA SUB-DISTRICT HOSPITAL	495	CENTRAL	NYERI	MATHIRA	KARATINA	CHERU	GPS	1	MOH	-0.47339	37.12943	{854B7591-63B6-4B97-A1EE-C592A84D02B5}
37.2428	0.095573	530	73	TIMAU CATHOLIC DISP	2784	EASTERN	CENTRAL MERU	TIMAU	KIRIMARA	KIAMBOGO(CMERU)	DSA/DFH(MOH)-UNFPA REPORT	4	MISS	0.095573	37.2428	{DD1FF6A2-3317-4CF2-A84F-F8EE0A5B03D7}
37.265	0.110137	531	74	TIMAU HEALTH CENTRE	1177	EASTERN	CENTRAL MERU	TIMAU	NGUSISHI	MARITATI	DSA/DFH(MOH)-UNFPA REPORT	3	MOH	0.110137	37.265	{F8747F28-DDD7-4A9B-8065-5E044198C87C}
37.125226	-0.619394	532	22	GUMBA DISP	451	CENTRAL	NYERI	MUKURWE-INI	RUTUNE	NGAMWA	1:50000 MAPS	4	MOH	-0.619394	37.125226	{00B90648-CAA9-4482-8686-40472745C01C}
37.641232	0.052321	533	75	TUNTU DISP (MERU GK PRISON DISP)	3432	EASTERN	CENTRAL MERU	MIRIGA MIERU WEST	NTIMA	TUNTU	1:50000 MAPS	4	MOH	0.052321	37.641232	{8A004557-24D4-4F22-ADBC-5BABBADB9DEA}
36.781123	-0.12324	534	42	KAREMENO DISP	3146	CENTRAL	NYERI	KIENI WEST	MUGUNDA	KAREMENO	1:50000 MAPS	4	MOH	-0.12324	36.781123	{C1D9C506-7D87-4A32-B4F1-BD5BF811EAAC}
37.08784	-0.354505	535	23	HOMBE DISP	452	CENTRAL	NYERI	MATHIRA	RUGURU	SAGANA(NYERI)	1:50000 MAPS	4	MOH	-0.354505	37.08784	{8C596CB1-840A-4E0A-B8FA-3FFAFE30705C}
37.5638	-0.037399	536	78	URUKU GK PRISON DISP	1163	EASTERN	CENTRAL MERU	NKUENE	NKUENE	URUKU(CMERU)	DSA/DFH(MOH)-UNFPA REPORT	4	MOH	-0.037399	37.5638	{84C6934C-AC1C-405A-A18F-6C56C3F0DDEB}
36.8875	-0.578853	537	43	KARIKO DISP	462	CENTRAL	NYERI	OTHAYA	CHINGA	GIKIGIE	1:50000 MAPS	4	MISS	-0.578853	36.8875	{35901221-C870-465D-9B1F-B46F4CED3FF9}
37.6088	-0.030434	538	76	URUKU H C	1162	EASTERN	CENTRAL MERU	NKUENE	NKUENE	URUKU(CMERU)	DSA/DFH(MOH)-UNFPA REPORT	3	MOH	-0.030434	37.6088	{26CE639B-D088-4055-A2C3-8D204C2B2B2E}
36.98231	-0.52123	539	44	KARIMA DISP	463	CENTRAL	NYERI	OTHAYA	KARIMA	GURA	DISTRICT ESTIMATES	4	MISS	-0.52123	36.98231	{DA4C8429-7E24-4D12-B3BA-231896408800}
37.12657	-0.47851	540	24	HOMEBASED DISP	0	CENTRAL	NYERI	MATHIRA	KARATINA	CHERU	GPS	4	MOH	-0.47851	37.12657	{468D2360-4F29-4830-9B12-CA8F52ACC975}
36.946396	-0.590991	541	45	KIAGUTHU DISP	3152	CENTRAL	NYERI	OTHAYA	CHINGA	KIAGUTHU(CHINGA)	1:50000 MAPS	4	MOH	-0.590991	36.946396	{BED4B8A5-1A78-4F21-BE5B-32A65C4E0F6E}
37.6557	-0.130479	542	79	YURURU DISP	3445	EASTERN	CENTRAL MERU	ABOGETA	KANYAKINE	KANYAKINE	DSA/DFH(MOH)-UNFPA REPORT	4	MISS	-0.130479	37.6557	{16AD3B49-6201-4DEA-94B3-F5453AC75155}
36.935586	-0.576577	543	46	KIAMUYA DISP	4373	CENTRAL	NYERI	OTHAYA	CHINGA	KAGONGO(NYERI)	1:50000 MAPS	4	MOH	-0.576577	36.935586	{F9602758-C43C-40CC-A29A-C4B2580A0B4E}
37.5968	-0.417376	544	30	CONSOLATA HOSPITAL KYENI	4261	EASTERN	EMBU	KYENI	KYENI SOUTH	KATHANJURI	HD MAPS	1	MISS	-0.417376	37.5968	{B13E49FD-0873-496B-B16E-EF53F397DB0A}
36.83784	-0.451351	545	47	KIANDONGORO DISP	464	CENTRAL	NYERI	TETU	TETU	KIRURUMI	1:50000 MAPS	4	MOH	-0.451351	36.83784	{26DCF1C4-6ACC-414F-9A1D-B9B7CE43D71F}
37.451526	-0.522311	546	2	EMBU CHILDREN CLINIC	0	EASTERN	EMBU	CENTRAL	MUNICIPALITY	NJUKIRI	ILRI MKT CENTRES	4	MISS	-0.522311	37.451526	{13E9F358-85C1-4739-980C-16F408D7B2B1}
37.07877	-0.54258	547	25	ICHAMARA DISP	453	CENTRAL	NYERI	MUKURWE-INI	GITHI	ICHAMARA	GPS	4	MOH	-0.54258	37.07877	{AB2839A9-24C4-4E16-9807-3758398DBA73}
37.453604	-0.522973	548	3	EMBU PGH	840	EASTERN	EMBU	CENTRAL	MUNICIPALITY	NJUKIRI	1:50000 MAPS	2	MOH	-0.522973	37.453604	{B5E3C1A2-780D-4F13-98B7-CFD435E226B0}
37.00315	-0.37923	549	48	KIGANJO MARKET DISP	466	CENTRAL	NYERI	MUNICIPALITY	KIGANJO	KIGANJO(NYERI)	1:50000 MAPS	4	MOH	-0.37923	37.00315	{99E8E872-2C55-49B3-BBB3-6AB82847DC75}
37.55	-0.47	550	4	ENA DISP	799	EASTERN	EMBU	RUNYENJES	KAGAARI SOUTH	KAWANJARA	DHMT	4	MOH	-0.47	37.55	{F8D2EEFB-A166-4251-84A0-F747E1CEF1C2}
36.911123	-0.381122	551	49	KIHUYO DISP	4374	CENTRAL	NYERI	MUNICIPALITY	MUKARO	KIHUYO	1:50000 MAPS	4	MOH	-0.381122	36.911123	{FCCFDD5A-CF4D-41F8-9BEF-7A248FB24242}
37.5076	-0.385563	552	5	GAIKAMA DISP	4319	EASTERN	EMBU	RUNYENJES	KAGAARI NORTH	KIANJOKOMA	DSA/DFH(MOH)-UNFPA REPORT	4	MISS	-0.385563	37.5076	{4A9B0391-52DC-4CA6-B053-6A89790424D5}
36.883322	-0.554411	553	26	IHURIRIO DISP	454	CENTRAL	NYERI	OTHAYA	IRIA-INI	IHURIRIO	1:50000 MAPS	4	MOH	-0.554411	36.883322	{B103FAF2-145F-4C17-8EDA-248BAF39777E}
36.89	-0.441123	554	50	KINUNGA HEALTH CENTRE	491	CENTRAL	NYERI	TETU	TETU	KIGOGOINI	1:50000 MAPS	3	MOH	-0.441123	36.89	{AF238D14-0865-424B-9EF1-5F5B996FA40E}
37.572321	-0.381235	555	6	GATUMBI DISP	802	EASTERN	EMBU	KYENI	KYENI NORTH	KIANGUNGI	1:50000 MAPS	4	MOH	-0.381235	37.572321	{5FC12392-6510-4657-BB7A-1C80368BAB65}
36.8544	-0.435484	556	51	KIRURUMI DISP	3148	CENTRAL	NYERI	TETU	TETU	KIRURUMI	1:50000 MAPS	4	MOH	-0.435484	36.8544	{E8882FFD-D12E-471A-AC07-1C155C35EB0A}
36.8907	-0.412186	557	27	IHURURU DISP	455	CENTRAL	NYERI	TETU	MAHOYA	IHURURU	1:50000 MAPS	4	MOH	-0.412186	36.8907	{E48001A8-1AF6-436B-8586-C6416252E947}
37.471234	-0.482321	558	7	GATUNDURI DISP	2783	EASTERN	EMBU	CENTRAL	MBETI NORTH	KIANGIMA	1:50000 MAPS	4	MOH	-0.482321	37.471234	{B15935A3-46E9-4B21-B6D0-74EDDF92D558}
37.13	-0.42	559	52	MAGUTU MISSION DISP	468	CENTRAL	NYERI	MATHIRA	MAGUTU	GAIKUYU	ILRI VILLAGES	4	MISS	-0.42	37.13	{38365C9E-B47C-470B-A7A6-B306C5860524}
37.4744	-0.548287	560	63	GERTRUDES DISP	4340	EASTERN	EMBU	CENTRAL	MBETI NORTH	ITABUA	DSA/DFH(MOH)-UNFPA REPORT	4	MISS	-0.548287	37.4744	{66E04BD7-79C3-47E8-AEC3-B2615DAB69D3}
36.91523	-0.512321	561	53	MAHIGA  MISSION DISP	27	CENTRAL	NYERI	OTHAYA	MAHIGA	KAMOKO	DISTRICT ESTIMATES	4	MISS	-0.512321	36.91523	{DA027D15-8826-4EF8-867C-7437C33C0779}
37.4763	-0.555864	562	9	KAGUMOINI DISP	3546	EASTERN	EMBU	CENTRAL	MBETI NORTH	ITABUA	DSA/DFH(MOH)-UNFPA REPORT	4	MISS	-0.555864	37.4763	{E29A978C-CFFE-4DC5-BBF2-9B683ED33D55}
37.061123	-0.21134	563	28	ISLAND FARM DISP	456	CENTRAL	NYERI	KIENI EAST	NAROMORU	RONGAI(NYERI)	1:50000 MAPS	4	MOH	-0.21134	37.061123	{C77AD7C9-CC9E-4A71-A4DB-8530D3F6A43A}
36.9	-0.31667	564	54	MARY IMMACULATE HOSP. MWEIGA	1694	CENTRAL	NYERI	KIENI WEST	MWEIGA	KAMATONGU	HD MAPS	1	MISS	-0.31667	36.9	{A9A62C34-EEFB-4772-97B2-B344D1FEA506}
37.4647	-0.430926	565	10	KAIRURI DISP	807	EASTERN	EMBU	MANYATTA	NGANDORI	KAIRURI	DSA/DFH(MOH)-UNFPA REPORT	4	MOH	-0.430926	37.4647	{2136BDD8-31ED-41FA-BE6B-A6EBA1E51B58}
37.04213	-0.131124	566	55	MERE DISP	469	CENTRAL	NYERI	KIENI EAST	KIAMATHAGE	MIRICHO	1:50000 MAPS	4	MOH	-0.131124	37.04213	{07E6BCDF-7890-4237-AFE0-35F627B7075C}
37.107207	-0.40991	567	29	ITIATI DISP	3145	CENTRAL	NYERI	MATHIRA	KONYU	ITIATI	1:50000 MAPS	4	MOH	-0.40991	37.107207	{3F4AF253-E397-49B8-AC29-518F479D7D8C}
37.4649	-0.509833	568	12	KANGARU DISP	809	EASTERN	EMBU	CENTRAL	MUNICIPALITY	NTHAMBO(EMBU)	DSA/DFH(MOH)-UNFPA REPORT	4	MOH	-0.509833	37.4649	{12AB6426-FD2D-4C9A-8C76-E84BB09F99CF}
37.07748	-0.565766	569	56	MIHUTI DISP	470	CENTRAL	NYERI	MUKURWE-INI	GIATHUGU	MIHUTI(NYERI)	1:50000 MAPS	4	MOH	-0.565766	37.07748	{38F914BA-6E09-4096-BBCB-02ED3A393BEC}
37.5275	-0.379137	570	13	KANJA DISP	811	EASTERN	EMBU	RUNYENJES	KAGAARI NORTH	KANJA	DSA/DFH(MOH)-UNFPA REPORT	4	MOH	-0.379137	37.5275	{8F1B20B2-C988-42D0-A325-E1F562A2095F}
36.93414	-0.42414	571	57	MT. KENYA HOSPITAL	497	CENTRAL	NYERI	MUNICIPALITY	MUKARO	MAJENGO(NYERI)	GPS	1	MOH	-0.42414	36.93414	{9B56BD1F-0C61-4939-9F63-24820BD80216}
37.4615	-0.387075	572	15	KARAU H C	814	EASTERN	EMBU	MANYATTA	NGINDA	MBUVORI	DSA/DFH(MOH)-UNFPA REPORT	3	MOH	-0.387075	37.4615	{80202704-3557-43AA-8D7E-7C964DE02003}
37.18378	-0.406532	573	30	ITUNDU DISP	3154	CENTRAL	NYERI	MATHIRA	IRIA-INI	CHEHE	1:50000 MAPS	4	MOH	-0.406532	37.18378	{1989DC4A-1BD4-47FB-B682-190F2699A4AE}
36.71123	-0.30123	574	58	MUGUNDA DISP	471	CENTRAL	NYERI	KIENI WEST	ENDARASHA	GAKANGA	1:50000 MAPS	4	MOH	-0.30123	36.71123	{87B87BBD-98D3-4E66-9AD4-2130B4C9C54E}
37.66	-0.46	575	16	KARURUMO RHTC	844	EASTERN	EMBU	KYENI	KARURUMO	KATHUNGURI	DHMT	3	MOH	-0.46	37.66	{7ED75E31-FE1F-4099-A385-EA9073B34E52}
37.4451	-0.478747	576	17	KATHANGARI DISP	815	EASTERN	EMBU	MANYATTA	NGANDORI	KATHANGARI	DSA/DFH(MOH)-UNFPA REPORT	4	MOH	-0.478747	37.4451	{AF23D29C-E49A-4C01-AF01-26FD4CA240D6}
37.04464	-0.55924	577	59	MUKURWENI SUB-DISTRICT HOSP.	498	CENTRAL	NYERI	MUKURWE-INI	MUHITO	GATURIA	GPS	1	MOH	-0.55924	37.04464	{CE3F483A-C558-4F12-BDA8-B33AEE3C177B}
36.8239	-0.402778	578	31	KABAGE DISP	457	CENTRAL	NYERI	TETU	MAHOYA	KABAGE	1:50000 MAPS	4	MOH	-0.402778	36.8239	{4D5B9F6A-E327-4896-9E07-92CE00452354}
37.45	-0.41	579	18	KATHANGARIRI DISP	0	EASTERN	EMBU	MANYATTA	NGINDA	NGUVIU	DHMT	4	MOH	-0.41	37.45	{FF311D90-F5F4-4546-9E4C-F4852B094E50}
37.02793	-0.123874	580	60	MURERU DISP	3150	CENTRAL	NYERI	KIENI EAST	GAKAWA	GITHIMA(NYERI)	1:50000 MAPS	4	MOH	-0.123874	37.02793	{7D6E2417-D2C6-4C71-8834-E4BB0D83BA84}
37.61	-0.42	581	19	KATHANJURI DISP	816	EASTERN	EMBU	KYENI	KYENI SOUTH	NYAGARI	DHMT	4	MOH	-0.42	37.61	{9E7BAB4A-E7B2-4B5D-9A89-73B0606131F3}
37.053153	-0.593694	582	61	MUTHUTHI-INI DISP	3810	CENTRAL	NYERI	MUKURWE-INI	GIKONDI	MUTHUTHIINI	1:50000 MAPS	4	MOH	-0.593694	37.053153	{F27C3F77-C364-4449-96ED-7EED0992B1C0}
36.9261	-0.516129	583	32	KAGERE DISP	3151	CENTRAL	NYERI	OTHAYA	MAHIGA	KAMOKO	1:50000 MAPS	4	MOH	-0.516129	36.9261	{A16B681C-7923-48B3-A695-1D898AB6910A}
37.5349	-0.444724	584	21	KEVOTE DISP	817	EASTERN	EMBU	NEMBURE	MAKENGI	KEVOTE	DSA/DFH(MOH)-UNFPA REPORT	4	MISS	-0.444724	37.5349	{5E45D4F1-B29D-42C7-8CC7-FC17586E9584}
37.10231	-0.602321	585	62	MWERU DISPENSARY	507	CENTRAL	NYERI	MUKURWE-INI	GIATHUGU	MWERU(NYERI)	DISTRICT ESTIMATES	4	MOH	-0.602321	37.10231	{27B16FB0-D4B1-448C-976B-75E228261171}
36.902253	-0.600901	586	33	KAGICHA DISP	4575	CENTRAL	NYERI	OTHAYA	CHINGA	MUMBUINI	1:50000 MAPS	4	MOH	-0.600901	36.902253	{5B770092-0EE3-411B-8B6A-F8F463850FFF}
37.5016	-0.397093	587	22	KIANJOKOMA HEALTH CENTRE	837	EASTERN	EMBU	RUNYENJES	KAGAARI NORTH	KIANJOKOMA	DSA/DFH(MOH)-UNFPA REPORT	3	MOH	-0.397093	37.5016	{70E4623C-8CF0-46E5-85EF-C0F4C0FA6192}
37.01082	-0.317568	588	63	NAIROBI DISP	472	CENTRAL	NYERI	KIENI EAST	THIGU	THIRIGITU	1:50000 MAPS	4	MOH	-0.317568	37.01082	{965E71BF-FAAE-404B-82D8-AF4D46DC30DE}
37.4352	-0.444346	589	23	KIBUGU HEALTH CENTRE	838	EASTERN	EMBU	MANYATTA	NGINDA	KIBUGU	DSA/DFH(MOH)-UNFPA REPORT	3	MOH	-0.444346	37.4352	{A22ED4EF-0938-4776-B775-FCB9D928F628}
37.03124	-0.17421	590	64	NARO MORU CATHOLIC DISP	3141	CENTRAL	NYERI	KIENI EAST	NAROMORU	NAROMORU	DISTRICT ESTIMATES	4	MISS	-0.17421	37.03124	{6DEBCF2C-8C76-4B60-A268-CD63FC041399}
37.64	-0.42085	591	74	KIGUMO DISP	819	EASTERN	EMBU	KYENI	KYENI SOUTH	KIGUMO	DSA/DFH(MOH)-UNFPA REPORT	4	MISS	-0.42085	37.64	{013FF99A-C0A2-4E80-AB83-D4CE3787F8F7}
37.02027	-0.16667	592	65	NARO MORU SUB HEALTH CENTRE	474	CENTRAL	NYERI	KIENI EAST	NAROMORU	NAROMORU	1:50000 MAPS	3	MOH	-0.16667	37.02027	{61497E47-E3C4-4DA1-A01E-1002F73EDF00}
37.4732	-0.398038	593	25	KIRIARI CPK DISP	2754	EASTERN	EMBU	MANYATTA	RUGURU	KIRIARI	DSA/DFH(MOH)-UNFPA REPORT	4	MISS	-0.398038	37.4732	{0718B818-7FB1-4C35-9E54-5E5037E39C0B}
37.11982	-0.301354	594	66	NDATHI DISP	476	CENTRAL	NYERI	KIENI EAST	KABARU	NDATHI	1:50000 MAPS	4	MOH	-0.301354	37.11982	{2D55AF3E-6326-45A0-AC6B-4F64616D8FEE}
37.5585	-0.510879	595	27	KITHEGI DISP	804	EASTERN	EMBU	NEMBURE	KITHIMU	KITHEGI	DSA/DFH(MOH)-UNFPA REPORT	4	MOH	-0.510879	37.5585	{A5DA236D-D76E-41FB-818E-4DEE5FF34CDE}
37.137387	-0.522523	596	67	NDIMAINI DISP	477	CENTRAL	NYERI	MATHIRA	KONYU	GAKUYU(NYERI)	1:50000 MAPS	4	MOH	-0.522523	37.137387	{1F97FE95-B12E-43B0-AD23-6FAB60F6E72C}
37.5192	-0.507477	597	28	KITHIMU DISP	805	EASTERN	EMBU	NEMBURE	KITHIMU	KITHIMU	DSA/DFH(MOH)-UNFPA REPORT	4	MOH	-0.507477	37.5192	{AF36D6D1-767C-4746-B6EA-4FD858017AB2}
36.8858	-0.489695	598	68	NDUGAMANO DISP	84	CENTRAL	NYERI	TETU	THEGENGE	NDUGAMANO	1:50000 MAPS	4	MOH	-0.489695	36.8858	{400E52F6-8C05-4032-9ABA-7A9CED0272A9}
37.4778	-0.358109	599	20	KITHUNGURIRI DISP	2443	EASTERN	EMBU	MANYATTA	RUGURU	KITHUNGURIRI	DDP	4	MOH	-0.358109	37.4778	{BB1CC9CF-9A7C-44D8-990F-EFD84230A97B}
37.09231	-0.45123	600	69	NGANDU-KABIRUINI MISSION DISP	478	CENTRAL	NYERI	MATHIRA	KIRIMUKUYU	NGANDU	DISTRICT ESTIMATES	4	MISS	-0.45123	37.09231	{D97ED75D-7481-4FAD-AF7E-0BE982B76248}
37.5228	-0.452285	601	31	MAKENGI DISP	823	EASTERN	EMBU	NEMBURE	MAKENGI	MAKENGI	DSA/DFH(MOH)-UNFPA REPORT	4	MOH	-0.452285	37.5228	{9B69E2C6-5E0A-420C-B84F-821D74745AA1}
37.064189	-0.409901	602	70	NGORANO HEALTH CENTRE	510	CENTRAL	NYERI	MATHIRA	NGORANO	HIRIGA	1:50000 MAPS	3	MOH	-0.409901	37.064189	{65922B8A-2C2B-4658-ABFD-DCA51E074DFC}
37.4782	-0.563803	603	32	MOTHER NAZZALLERO MISSION DISP	0	EASTERN	EMBU	CENTRAL	MBETI NORTH	ITABUA	DSA/DFH(MOH)-UNFPA REPORT	4	MISS	-0.563803	37.4782	{A6B2A6E5-8FF9-4505-B15A-4B25CDB14B8E}
36.863964	-0.40045	604	71	NJOGUINI DISP	3545	CENTRAL	NYERI	TETU	MAHOYA	THATHA(NYERI)	1:50000 MAPS	4	MOH	-0.40045	36.863964	{BB0918E4-04A8-4E3B-B916-552B2EBC3322}
37.5869	-0.396106	605	33	MUFU DISP	826	EASTERN	EMBU	KYENI	KYENI NORTH	MUFU	DSA/DFH(MOH)-UNFPA REPORT	4	MOH	-0.396106	37.5869	{80D9701F-B8CE-48FC-91D2-6E666950FC83}
36.992255	-0.571122	606	72	NJOKI DISP	479	CENTRAL	NYERI	MUKURWE-INI	GAKINDU	GAKINDUINI	1:50000 MAPS	4	MOH	-0.571122	36.992255	{E274FD43-2F71-4C67-AE53-B071540764A6}
37.67	-0.49	607	34	NDUMARI DISP	0	EASTERN	EMBU	RUNYENJES	KAGAARI SOUTH	KIRINGA	DHMT	4	MISS	-0.49	37.67	{B6563281-1833-4759-9F7A-CE772FDFBA47}
36.96113	-0.42399	608	73	NYERI PROVINCIAL GENERAL HOSP.	499	CENTRAL	NYERI	MUNICIPALITY	MUKARO	MAJENGO(NYERI)	GPS	2	MOH	-0.42399	36.96113	{09D66931-6CDB-4D0A-85D5-4DDE1E54E47F}
